{
"type": "FeatureCollection",
"name": "PobladosRBM",
"crs": { "type": "name", "properties": { "name": "urn:ogc:def:crs:OGC:1.3:CRS84" } },
"features": [
{ "type": "Feature", "properties": { "Id": 0, "Nombre": "LAGO PETÉN ITZÁ", "CATEGORIA": "30", "Descrip": "Lago", "Lugar": "Lago Petén Itzá" }, "geometry": { "type": "Point", "coordinates": [ -89.833841487214215, 16.988731773505876 ] } },
{ "type": "Feature", "properties": { "Id": 0, "Nombre": "Finca Cantetul", "CATEGORIA": "07", "Descrip": "Finca", "Lugar": "Finca Cantetul" }, "geometry": { "type": "Point", "coordinates": [ -89.917646230557892, 16.994644014535051 ] } },
{ "type": "Feature", "properties": { "Id": 0, "Nombre": "Aserradero\r\ndel Norte", "CATEGORIA": "12", "Descrip": "Entidades", "Lugar": "Aserradero\r\nDel Norte" }, "geometry": { "type": "Point", "coordinates": [ -89.925555794185129, 16.995168201491797 ] } },
{ "type": "Feature", "properties": { "Id": 0, "Nombre": "Nuevo San José", "CATEGORIA": "03", "Descrip": "Cabecera municipal", "Lugar": "Nuevo San José" }, "geometry": { "type": "Point", "coordinates": [ -89.896993765318115, 16.993521103720862 ] } },
{ "type": "Feature", "properties": { "Id": 0, "Nombre": "Punta Nimá", "CATEGORIA": "23", "Descrip": "Punta", "Lugar": "Punta Nimá" }, "geometry": { "type": "Point", "coordinates": [ -89.8575168050602, 16.982599920678933 ] } },
{ "type": "Feature", "properties": { "Id": 0, "Nombre": "Punta Pichaín", "CATEGORIA": "23", "Descrip": "Punta", "Lugar": "Punta Pichaín" }, "geometry": { "type": "Point", "coordinates": [ -89.762729964150353, 16.98226126575592 ] } },
{ "type": "Feature", "properties": { "Id": 0, "Nombre": "NUEVO MEXICO", "CATEGORIA": "10", "Descrip": "Paraje", "Lugar": "Nuevo Mexico" }, "geometry": { "type": "Point", "coordinates": [ -90.797294804291695, 16.793120763336994 ] } },
{ "type": "Feature", "properties": { "Id": 0, "Nombre": "LA MISERIA", "CATEGORIA": "10", "Descrip": "Paraje", "Lugar": "La Miseria" }, "geometry": { "type": "Point", "coordinates": [ -90.784544053318257, 16.791513187100698 ] } },
{ "type": "Feature", "properties": { "Id": 0, "Nombre": "MACACHÍ", "CATEGORIA": "10", "Descrip": "Paraje", "Lugar": "Macachí" }, "geometry": { "type": "Point", "coordinates": [ -90.920490566655516, 16.824219721702324 ] } },
{ "type": "Feature", "properties": { "Id": 0, "Nombre": "Cooperativa Agrícola\r\nLa Felicidad", "CATEGORIA": "12", "Descrip": "Entidades", "Lugar": "Cooperativa Agrícola\r\nLa Felicidad" }, "geometry": { "type": "Point", "coordinates": [ -90.890611597963812, 16.826990368008374 ] } },
{ "type": "Feature", "properties": { "Id": 0, "Nombre": "Parcelamiento Agrario\r\nRetalteco", "CATEGORIA": "18", "Descrip": "Parcelamientos, Colonias, Barrios, Lotificaciones o similares", "Lugar": "Parcelamiento Agrario\r\nRetalteco" }, "geometry": { "type": "Point", "coordinates": [ -90.797766355854378, 16.824411574067327 ] } },
{ "type": "Feature", "properties": { "Id": 0, "Nombre": "Parcelamiento Agrario\r\nBethania\r\n", "CATEGORIA": "18", "Descrip": "Parcelamientos, Colonias, Barrios, Lotificaciones o similares", "Lugar": "Parcelamiento Agrario\r\nBethania\r\n" }, "geometry": { "type": "Point", "coordinates": [ -90.768528767277488, 16.807985515089619 ] } },
{ "type": "Feature", "properties": { "Id": 0, "Nombre": "Parcelamiento Agrario\r\nSinaí", "CATEGORIA": "18", "Descrip": "Parcelamientos, Colonias, Barrios, Lotificaciones o similares", "Lugar": "Parcelamiento Agrario\r\nSinaí" }, "geometry": { "type": "Point", "coordinates": [ -90.80721364400479, 16.805660862790539 ] } },
{ "type": "Feature", "properties": { "Id": 0, "Nombre": "BETHEL", "CATEGORIA": "05", "Descrip": "Aldea", "Lugar": "Bethel" }, "geometry": { "type": "Point", "coordinates": [ -90.8139277162756, 16.801186510069996 ] } },
{ "type": "Feature", "properties": { "Id": 0, "Nombre": "PUNTA DEL GALLO", "CATEGORIA": "10", "Descrip": "Paraje", "Lugar": "Punta Del Gallo" }, "geometry": { "type": "Point", "coordinates": [ -90.831049718291368, 16.796888742181608 ] } },
{ "type": "Feature", "properties": { "Id": 0, "Nombre": "(Cooperativa Agricola)", "CATEGORIA": "12", "Descrip": "Entidades", "Lugar": "(cooperativa Agricola)" }, "geometry": { "type": "Point", "coordinates": [ -90.818168418246884, 16.800563030130512 ] } },
{ "type": "Feature", "properties": { "Id": 0, "Nombre": "EL TORNILLO", "CATEGORIA": "10", "Descrip": "Paraje", "Lugar": "El Tornillo" }, "geometry": { "type": "Point", "coordinates": [ -90.853981595242232, 16.800471827090639 ] } },
{ "type": "Feature", "properties": { "Id": 0, "Nombre": "CARIBAL", "CATEGORIA": "10", "Descrip": "Paraje", "Lugar": "Caribal" }, "geometry": { "type": "Point", "coordinates": [ -90.755551759395914, 16.754699732203356 ] } },
{ "type": "Feature", "properties": { "Id": 0, "Nombre": "ÁREA ARQUEOLÓGICA PIEDRAS NEGRAS", "CATEGORIA": "11", "Descrip": "Sitios arqueológicos", "Lugar": "Área Arqueológica Piedras Negras" }, "geometry": { "type": "Point", "coordinates": [ -91.328323616906616, 17.219240849797615 ] } },
{ "type": "Feature", "properties": { "Id": 0, "Nombre": "SIERRA DE LACANDÓN", "CATEGORIA": "17", "Descrip": "Montañas, Sierras, Lomas o similares", "Lugar": "Sierra De Lacandón" }, "geometry": { "type": "Point", "coordinates": [ -91.298005727430322, 17.225227128735568 ] } },
{ "type": "Feature", "properties": { "Id": 0, "Nombre": "Sitio Arqueológico\r\nEl Porvenir", "CATEGORIA": "11", "Descrip": "Sitios arqueológicos", "Lugar": "Sitio Arqueológico\r\nEl Porvenir" }, "geometry": { "type": "Point", "coordinates": [ -91.297096995278622, 17.183759934651189 ] } },
{ "type": "Feature", "properties": { "Id": 0, "Nombre": "Sitio Arqueológico\r\nPiedras Negras", "CATEGORIA": "11", "Descrip": "Sitios arqueológicos", "Lugar": "Sitio Arqueológico\r\nPiedras Negras" }, "geometry": { "type": "Point", "coordinates": [ -91.259796428045902, 17.142778172490669 ] } },
{ "type": "Feature", "properties": { "Id": 0, "Nombre": "PARCELAMIENTO AGRARIO CENTRO CAMPESINO", "CATEGORIA": "18", "Descrip": "Parcelamientos, Colonias, Barrios, Lotificaciones o similares", "Lugar": "Parcelamiento Agrario Centro Campesino" }, "geometry": { "type": "Point", "coordinates": [ -90.248071268781018, 17.134069230838733 ] } },
{ "type": "Feature", "properties": { "Id": 0, "Nombre": "Finca Guacutul", "CATEGORIA": "07", "Descrip": "Finca", "Lugar": "Finca Guacutul" }, "geometry": { "type": "Point", "coordinates": [ -90.011508419796854, 17.10092671255309 ] } },
{ "type": "Feature", "properties": { "Id": 0, "Nombre": "PARCELAMIENTO AGRARIO EL ABANO", "CATEGORIA": "18", "Descrip": "Parcelamientos, Colonias, Barrios, Lotificaciones o similares", "Lugar": "Parcelamiento Agrario El Abano" }, "geometry": { "type": "Point", "coordinates": [ -90.106721982985931, 17.104392258252318 ] } },
{ "type": "Feature", "properties": { "Id": 0, "Nombre": "La Ceibita", "CATEGORIA": "06", "Descrip": "Caserío", "Lugar": "La Ceibita" }, "geometry": { "type": "Point", "coordinates": [ -90.162298639360131, 17.108528928651626 ] } },
{ "type": "Feature", "properties": { "Id": 0, "Nombre": "Hacienda\r\nLaguna Perdida", "CATEGORIA": "08", "Descrip": "Ranchería o Hacienda", "Lugar": "Hacienda\r\nLaguna Perdida" }, "geometry": { "type": "Point", "coordinates": [ -90.208300557807078, 17.073134113323782 ] } },
{ "type": "Feature", "properties": { "Id": 0, "Nombre": "El Gallinero", "CATEGORIA": "06", "Descrip": "Caserío", "Lugar": "El Gallinero" }, "geometry": { "type": "Point", "coordinates": [ -90.135948392794958, 17.070857433763344 ] } },
{ "type": "Feature", "properties": { "Id": 0, "Nombre": "El Agucatal", "CATEGORIA": "06", "Descrip": "Caserío", "Lugar": "El Agucatal" }, "geometry": { "type": "Point", "coordinates": [ -90.086342428570106, 17.064899816893611 ] } },
{ "type": "Feature", "properties": { "Id": 0, "Nombre": "La Verónica", "CATEGORIA": "06", "Descrip": "Caserío", "Lugar": "La Verónica" }, "geometry": { "type": "Point", "coordinates": [ -90.059601170281809, 17.083615636508107 ] } },
{ "type": "Feature", "properties": { "Id": 0, "Nombre": "El Resumidero", "CATEGORIA": "06", "Descrip": "Caserío", "Lugar": "El Resumidero" }, "geometry": { "type": "Point", "coordinates": [ -90.029085841406328, 17.090684268487511 ] } },
{ "type": "Feature", "properties": { "Id": 0, "Nombre": "Los Muertos", "CATEGORIA": "06", "Descrip": "Caserío", "Lugar": "Los Muertos" }, "geometry": { "type": "Point", "coordinates": [ -90.021149541515484, 17.068841214448753 ] } },
{ "type": "Feature", "properties": { "Id": 0, "Nombre": "Chanrío", "CATEGORIA": "06", "Descrip": "Caserío", "Lugar": "Chanrío" }, "geometry": { "type": "Point", "coordinates": [ -90.005350095231506, 17.068065325800898 ] } },
{ "type": "Feature", "properties": { "Id": 0, "Nombre": "El Chapayal", "CATEGORIA": "06", "Descrip": "Caserío", "Lugar": "El Chapayal" }, "geometry": { "type": "Point", "coordinates": [ -90.008091538049356, 17.020036304767007 ] } },
{ "type": "Feature", "properties": { "Id": 0, "Nombre": "San Antonio Las Brisas", "CATEGORIA": "06", "Descrip": "Caserío", "Lugar": "San Antonio Las Brisas" }, "geometry": { "type": "Point", "coordinates": [ -90.072317770630619, 17.04079775205399 ] } },
{ "type": "Feature", "properties": { "Id": 0, "Nombre": "Ruinas", "CATEGORIA": "11", "Descrip": "Sitios arqueológicos", "Lugar": "Ruinas" }, "geometry": { "type": "Point", "coordinates": [ -90.418086616590827, 16.792137324815634 ] } },
{ "type": "Feature", "properties": { "Id": 0, "Nombre": "Ruinas", "CATEGORIA": "11", "Descrip": "Sitios arqueológicos", "Lugar": "Ruinas" }, "geometry": { "type": "Point", "coordinates": [ -90.429110959323012, 16.793451767448609 ] } },
{ "type": "Feature", "properties": { "Id": 0, "Nombre": "LA ZARCA", "CATEGORIA": "10", "Descrip": "Paraje", "Lugar": "La Zarca" }, "geometry": { "type": "Point", "coordinates": [ -89.173115891760105, 17.139435501673027 ] } },
{ "type": "Feature", "properties": { "Id": 0, "Nombre": "Arroyo del Guarda", "CATEGORIA": "06", "Descrip": "Caserío", "Lugar": "Arroyo Del Guarda" }, "geometry": { "type": "Point", "coordinates": [ -89.152332444439551, 17.121253978733371 ] } },
{ "type": "Feature", "properties": { "Id": 0, "Nombre": "BAMBUNAL", "CATEGORIA": "10", "Descrip": "Paraje", "Lugar": "Bambunal" }, "geometry": { "type": "Point", "coordinates": [ -89.190540360687123, 17.116119757693426 ] } },
{ "type": "Feature", "properties": { "Id": 0, "Nombre": "Finca Manantial", "CATEGORIA": "07", "Descrip": "Finca", "Lugar": "Finca Manantial" }, "geometry": { "type": "Point", "coordinates": [ -89.190989539251106, 17.104944641773201 ] } },
{ "type": "Feature", "properties": { "Id": 0, "Nombre": "Laín", "CATEGORIA": "06", "Descrip": "Caserío", "Lugar": "Laín" }, "geometry": { "type": "Point", "coordinates": [ -89.182588389751942, 17.093283235662959 ] } },
{ "type": "Feature", "properties": { "Id": 0, "Nombre": "GUACUTAL", "CATEGORIA": "10", "Descrip": "Paraje", "Lugar": "Guacutal" }, "geometry": { "type": "Point", "coordinates": [ -89.232973850906845, 17.082617233561745 ] } },
{ "type": "Feature", "properties": { "Id": 0, "Nombre": "Apiario\r\nEl Cedro", "CATEGORIA": "12", "Descrip": "Entidades", "Lugar": "Apiario\r\nEl Cedro" }, "geometry": { "type": "Point", "coordinates": [ -89.220283859320503, 17.03636690384732 ] } },
{ "type": "Feature", "properties": { "Id": 0, "Nombre": "Laguneta El sos", "CATEGORIA": "32", "Descrip": "Laguneta", "Lugar": "Laguneta El Sos" }, "geometry": { "type": "Point", "coordinates": [ -89.219175667630893, 17.030914070482652 ] } },
{ "type": "Feature", "properties": { "Id": 0, "Nombre": "SOSLAGUNA", "CATEGORIA": "10", "Descrip": "Paraje", "Lugar": "Soslaguna" }, "geometry": { "type": "Point", "coordinates": [ -89.229259993952837, 17.030462510613471 ] } },
{ "type": "Feature", "properties": { "Id": 0, "Nombre": "EL HORQUETERO", "CATEGORIA": "10", "Descrip": "Paraje", "Lugar": "El Horquetero" }, "geometry": { "type": "Point", "coordinates": [ -89.245776447614887, 17.029490363035205 ] } },
{ "type": "Feature", "properties": { "Id": 0, "Nombre": "Granja San Miguel", "CATEGORIA": "09", "Descrip": "Granja, Labor o similar", "Lugar": "Granja San Miguel" }, "geometry": { "type": "Point", "coordinates": [ -89.236051789710885, 17.02856473248292 ] } },
{ "type": "Feature", "properties": { "Id": 0, "Nombre": "El Campito", "CATEGORIA": "06", "Descrip": "Caserío", "Lugar": "El Campito" }, "geometry": { "type": "Point", "coordinates": [ -89.163003317150299, 17.054570137076961 ] } },
{ "type": "Feature", "properties": { "Id": 0, "Nombre": "CIUDAD MELCHOR DE MENCOS", "CATEGORIA": "03", "Descrip": "Cabecera municipal", "Lugar": "Ciudad Melchor De Mencos" }, "geometry": { "type": "Point", "coordinates": [ -89.15175755050717, 17.068415899390711 ] } },
{ "type": "Feature", "properties": { "Id": 0, "Nombre": "El Camalote", "CATEGORIA": "05", "Descrip": "Aldea", "Lugar": "El Camalote" }, "geometry": { "type": "Point", "coordinates": [ -89.178123257838266, 17.002559531688714 ] } },
{ "type": "Feature", "properties": { "Id": 0, "Nombre": "Laguneta Cerro Cortado", "CATEGORIA": "32", "Descrip": "Laguneta", "Lugar": "Laguneta Cerro Cortado" }, "geometry": { "type": "Point", "coordinates": [ -89.228198524005165, 17.022667230284682 ] } },
{ "type": "Feature", "properties": { "Id": 0, "Nombre": "Finca El Potrero", "CATEGORIA": "07", "Descrip": "Finca", "Lugar": "Finca El Potrero" }, "geometry": { "type": "Point", "coordinates": [ -89.246812637265563, 17.016407986409209 ] } },
{ "type": "Feature", "properties": { "Id": 0, "Nombre": "Cidabenque", "CATEGORIA": "06", "Descrip": "Caserío", "Lugar": "Cidabenque" }, "geometry": { "type": "Point", "coordinates": [ -89.242800673213338, 17.006640872141492 ] } },
{ "type": "Feature", "properties": { "Id": 0, "Nombre": "Pantano Peje Lagarto", "CATEGORIA": "41", "Descrip": "Otros nombres en azul", "Lugar": "Pantano Peje Lagarto" }, "geometry": { "type": "Point", "coordinates": [ -90.68801696773096, 16.769165777630196 ] } },
{ "type": "Feature", "properties": { "Id": 0, "Nombre": "EL ENCAJONADO DE GONZÁLEZ", "CATEGORIA": "10", "Descrip": "Paraje", "Lugar": "El Encajonado De González" }, "geometry": { "type": "Point", "coordinates": [ -90.729742243175878, 16.736030316836047 ] } },
{ "type": "Feature", "properties": { "Id": 0, "Nombre": "BOCA DEL ENCAJONADO", "CATEGORIA": "10", "Descrip": "Paraje", "Lugar": "Boca Del Encajonado" }, "geometry": { "type": "Point", "coordinates": [ -90.715213645146946, 16.728267625546017 ] } },
{ "type": "Feature", "properties": { "Id": 0, "Nombre": "LA PROVIDENCIA", "CATEGORIA": "10", "Descrip": "Paraje", "Lugar": "La Providencia" }, "geometry": { "type": "Point", "coordinates": [ -90.710843660582242, 16.724604118473799 ] } },
{ "type": "Feature", "properties": { "Id": 0, "Nombre": "PARCELAMIENTO AGRARIO LOS MANUELES", "CATEGORIA": "18", "Descrip": "Parcelamientos, Colonias, Barrios, Lotificaciones o similares", "Lugar": "Parcelamiento Agrario Los Manueles" }, "geometry": { "type": "Point", "coordinates": [ -90.542910078248028, 16.699062658202219 ] } },
{ "type": "Feature", "properties": { "Id": 0, "Nombre": "Vista\r\nHermosa", "CATEGORIA": "06", "Descrip": "Caserío", "Lugar": "Vista\r\nHermosa" }, "geometry": { "type": "Point", "coordinates": [ -90.587211961375374, 16.700718433603146 ] } },
{ "type": "Feature", "properties": { "Id": 0, "Nombre": "Laguneta La Esperanza", "CATEGORIA": "32", "Descrip": "Laguneta", "Lugar": "Laguneta La Esperanza" }, "geometry": { "type": "Point", "coordinates": [ -90.701934606371182, 16.718186974075767 ] } },
{ "type": "Feature", "properties": { "Id": 0, "Nombre": "EL MOCHO", "CATEGORIA": "10", "Descrip": "Paraje", "Lugar": "El Mocho" }, "geometry": { "type": "Point", "coordinates": [ -90.695399681845146, 16.698833774838164 ] } },
{ "type": "Feature", "properties": { "Id": 0, "Nombre": "SIERRA DEL LACANDÓN", "CATEGORIA": "17", "Descrip": "Montañas, Sierras, Lomas o similares", "Lugar": "Sierra Del Lacandón" }, "geometry": { "type": "Point", "coordinates": [ -90.7322419628521, 17.014810945806342 ] } },
{ "type": "Feature", "properties": { "Id": 0, "Nombre": "Nueva Vista Hermosa", "CATEGORIA": "06", "Descrip": "Caserío", "Lugar": "Nueva Vista Hermosa" }, "geometry": { "type": "Point", "coordinates": [ -90.577264329132802, 17.054392223923461 ] } },
{ "type": "Feature", "properties": { "Id": 0, "Nombre": "Nuevo Edén", "CATEGORIA": "06", "Descrip": "Caserío", "Lugar": "Nuevo Edén" }, "geometry": { "type": "Point", "coordinates": [ -90.700406479346839, 16.997132124011635 ] } },
{ "type": "Feature", "properties": { "Id": 0, "Nombre": "Sagrado Corazón", "CATEGORIA": "06", "Descrip": "Caserío", "Lugar": "Sagrado Corazón" }, "geometry": { "type": "Point", "coordinates": [ -90.713140706888154, 17.007924264045307 ] } },
{ "type": "Feature", "properties": { "Id": 0, "Nombre": "SIERRA DEL LACANDÓN", "CATEGORIA": "17", "Descrip": "Montañas, Sierras, Lomas o similares", "Lugar": "Sierra Del Lacandón" }, "geometry": { "type": "Point", "coordinates": [ -90.80186440653975, 16.98037972037303 ] } },
{ "type": "Feature", "properties": { "Id": 0, "Nombre": "Laguenta\r\nPoza Azul", "CATEGORIA": "32", "Descrip": "Laguneta", "Lugar": "Laguenta\r\nPoza Azul" }, "geometry": { "type": "Point", "coordinates": [ -90.788452729256576, 16.953927900166182 ] } },
{ "type": "Feature", "properties": { "Id": 0, "Nombre": "Parcelamiento Agrario\r\nBethania", "CATEGORIA": "18", "Descrip": "Parcelamientos, Colonias, Barrios, Lotificaciones o similares", "Lugar": "Parcelamiento Agrario\r\nBethania" }, "geometry": { "type": "Point", "coordinates": [ -90.951394665604511, 16.915911257197667 ] } },
{ "type": "Feature", "properties": { "Id": 0, "Nombre": "SANTO DOMINGO", "CATEGORIA": "10", "Descrip": "Paraje", "Lugar": "Santo Domingo" }, "geometry": { "type": "Point", "coordinates": [ -90.970939322924437, 16.903916449598483 ] } },
{ "type": "Feature", "properties": { "Id": 0, "Nombre": "Laguneta Santa María", "CATEGORIA": "32", "Descrip": "Laguneta", "Lugar": "Laguneta Santa María" }, "geometry": { "type": "Point", "coordinates": [ -90.948388572268215, 16.881648760205259 ] } },
{ "type": "Feature", "properties": { "Id": 0, "Nombre": "Cooperativa Agrícola\r\nEl Retalteco", "CATEGORIA": "12", "Descrip": "Entidades", "Lugar": "Cooperativa Agrícola\r\nEl Retalteco" }, "geometry": { "type": "Point", "coordinates": [ -90.80051103943012, 16.869753936801125 ] } },
{ "type": "Feature", "properties": { "Id": 0, "Nombre": "Laguneta Bolanchac", "CATEGORIA": "32", "Descrip": "Laguneta", "Lugar": "Laguneta Bolanchac" }, "geometry": { "type": "Point", "coordinates": [ -90.769685195554061, 16.853779002831331 ] } },
{ "type": "Feature", "properties": { "Id": 0, "Nombre": "Pantano La Vaca", "CATEGORIA": "41", "Descrip": "Otros nombres en azul", "Lugar": "Pantano La Vaca" }, "geometry": { "type": "Point", "coordinates": [ -90.840290332207459, 16.841025200848367 ] } },
{ "type": "Feature", "properties": { "Id": 0, "Nombre": "Sitio Arqueológico La Reina", "CATEGORIA": "11", "Descrip": "Sitios arqueológicos", "Lugar": "Sitio Arqueológico La Reina" }, "geometry": { "type": "Point", "coordinates": [ -90.497474635112027, 17.164780201939347 ] } },
{ "type": "Feature", "properties": { "Id": 0, "Nombre": "Laguneta El Yeso", "CATEGORIA": "32", "Descrip": "Laguneta", "Lugar": "Laguneta El Yeso" }, "geometry": { "type": "Point", "coordinates": [ -90.299285114564924, 17.118845718229611 ] } },
{ "type": "Feature", "properties": { "Id": 0, "Nombre": "Nacimiento Tamarís", "CATEGORIA": "06", "Descrip": "Caserío", "Lugar": "Nacimiento Tamarís" }, "geometry": { "type": "Point", "coordinates": [ -90.276808728941191, 17.099872481347003 ] } },
{ "type": "Feature", "properties": { "Id": 0, "Nombre": "Sitio Arqueológico Pajaral", "CATEGORIA": "11", "Descrip": "Sitios arqueológicos", "Lugar": "Sitio Arqueológico Pajaral" }, "geometry": { "type": "Point", "coordinates": [ -90.445458172318382, 17.130364515819743 ] } },
{ "type": "Feature", "properties": { "Id": 0, "Nombre": "San Jorge\r\nCampamento Petrolero", "CATEGORIA": "06", "Descrip": "Caserío", "Lugar": "San Jorge\r\nCampamento Petrolero" }, "geometry": { "type": "Point", "coordinates": [ -90.336413444482133, 17.080389507758579 ] } },
{ "type": "Feature", "properties": { "Id": 0, "Nombre": "El Triunfo", "CATEGORIA": "06", "Descrip": "Caserío", "Lugar": "El Triunfo" }, "geometry": { "type": "Point", "coordinates": [ -90.418497154512607, 16.942635693741568 ] } },
{ "type": "Feature", "properties": { "Id": 0, "Nombre": "LAGUNA\r\nSAN DIEGO", "CATEGORIA": "31", "Descrip": "Laguna", "Lugar": "Laguna\r\nSan Diego" }, "geometry": { "type": "Point", "coordinates": [ -90.417426394053351, 16.930755006449669 ] } },
{ "type": "Feature", "properties": { "Id": 0, "Nombre": "Guatelinda", "CATEGORIA": "06", "Descrip": "Caserío", "Lugar": "Guatelinda" }, "geometry": { "type": "Point", "coordinates": [ -90.418848320129911, 16.916888395038988 ] } },
{ "type": "Feature", "properties": { "Id": 0, "Nombre": "Laguneta\r\nLacandón", "CATEGORIA": "32", "Descrip": "Laguneta", "Lugar": "Laguneta\r\nLacandón" }, "geometry": { "type": "Point", "coordinates": [ -91.175122273271768, 17.065987793314676 ] } },
{ "type": "Feature", "properties": { "Id": 0, "Nombre": "Laguneta\r\nTexcoco", "CATEGORIA": "32", "Descrip": "Laguneta", "Lugar": "Laguneta\r\nTexcoco" }, "geometry": { "type": "Point", "coordinates": [ -91.174941153736128, 17.131661476425428 ] } },
{ "type": "Feature", "properties": { "Id": 0, "Nombre": "SIERRA DEL LACANDÓN", "CATEGORIA": "17", "Descrip": "Montañas, Sierras, Lomas o similares", "Lugar": "Sierra Del Lacandón" }, "geometry": { "type": "Point", "coordinates": [ -91.083825994828615, 17.106208048438294 ] } },
{ "type": "Feature", "properties": { "Id": 0, "Nombre": "LACANDÓN\r\n", "CATEGORIA": "10", "Descrip": "Paraje", "Lugar": "Lacandón\r\n" }, "geometry": { "type": "Point", "coordinates": [ -91.175956008245734, 17.112263586764012 ] } },
{ "type": "Feature", "properties": { "Id": 0, "Nombre": "LAS LACANDONAS", "CATEGORIA": "10", "Descrip": "Paraje", "Lugar": "Las Lacandonas" }, "geometry": { "type": "Point", "coordinates": [ -91.21104596965354, 17.059294550183409 ] } },
{ "type": "Feature", "properties": { "Id": 0, "Nombre": "Sitio Arqueológico\r\nLa Pasadita", "CATEGORIA": "11", "Descrip": "Sitios arqueológicos", "Lugar": "Sitio Arqueológico\r\nLa Pasadita" }, "geometry": { "type": "Point", "coordinates": [ -91.060216842964948, 17.003042768987282 ] } },
{ "type": "Feature", "properties": { "Id": 0, "Nombre": "SIERRA DEL LACANDÓN", "CATEGORIA": "17", "Descrip": "Montañas, Sierras, Lomas o similares", "Lugar": "Sierra Del Lacandón" }, "geometry": { "type": "Point", "coordinates": [ -90.707900105768843, 16.969368210594762 ] } },
{ "type": "Feature", "properties": { "Id": 0, "Nombre": "Las Ruinas", "CATEGORIA": "06", "Descrip": "Caserío", "Lugar": "Las Ruinas" }, "geometry": { "type": "Point", "coordinates": [ -90.546054835978339, 16.931259123996398 ] } },
{ "type": "Feature", "properties": { "Id": 0, "Nombre": "La Guadalupe", "CATEGORIA": "06", "Descrip": "Caserío", "Lugar": "La Guadalupe" }, "geometry": { "type": "Point", "coordinates": [ -90.509179546700736, 16.933171168304312 ] } },
{ "type": "Feature", "properties": { "Id": 0, "Nombre": "Finca San Carlos", "CATEGORIA": "07", "Descrip": "Finca", "Lugar": "Finca San Carlos" }, "geometry": { "type": "Point", "coordinates": [ -90.575631712797474, 16.932933043394545 ] } },
{ "type": "Feature", "properties": { "Id": 0, "Nombre": "Los Esclavos", "CATEGORIA": "06", "Descrip": "Caserío", "Lugar": "Los Esclavos" }, "geometry": { "type": "Point", "coordinates": [ -90.633571542700665, 16.947386467037088 ] } },
{ "type": "Feature", "properties": { "Id": 0, "Nombre": "SIERRA DEL LACANDÓN", "CATEGORIA": "17", "Descrip": "Montañas, Sierras, Lomas o similares", "Lugar": "Sierra Del Lacandón" }, "geometry": { "type": "Point", "coordinates": [ -90.590131852370988, 16.90253859620573 ] } },
{ "type": "Feature", "properties": { "Id": 0, "Nombre": "Laguna Mendoza", "CATEGORIA": "31", "Descrip": "Laguna", "Lugar": "Laguna Mendoza" }, "geometry": { "type": "Point", "coordinates": [ -90.612942424016637, 16.865352568861343 ] } },
{ "type": "Feature", "properties": { "Id": 0, "Nombre": "Pantano Campo Verde", "CATEGORIA": "41", "Descrip": "Otros nombres en azul", "Lugar": "Pantano Campo Verde" }, "geometry": { "type": "Point", "coordinates": [ -90.737770966379429, 16.881675285911136 ] } },
{ "type": "Feature", "properties": { "Id": 0, "Nombre": "Islote Góngora", "CATEGORIA": "26", "Descrip": "Islote", "Lugar": "Islote Góngora" }, "geometry": { "type": "Point", "coordinates": [ -90.67813356564605, 17.299301954791439 ] } },
{ "type": "Feature", "properties": { "Id": 0, "Nombre": "Laguneta\r\nGóngora", "CATEGORIA": "32", "Descrip": "Laguneta", "Lugar": "Laguneta\r\nGóngora" }, "geometry": { "type": "Point", "coordinates": [ -90.691448448126053, 17.295631711245278 ] } },
{ "type": "Feature", "properties": { "Id": 0, "Nombre": "EL LIMÓN", "CATEGORIA": "10", "Descrip": "Paraje", "Lugar": "El Limón" }, "geometry": { "type": "Point", "coordinates": [ -90.667891185850863, 17.304812789272731 ] } },
{ "type": "Feature", "properties": { "Id": 0, "Nombre": "EL CAOBAL", "CATEGORIA": "10", "Descrip": "Paraje", "Lugar": "El Caobal" }, "geometry": { "type": "Point", "coordinates": [ -90.616048387313029, 17.303459273924815 ] } },
{ "type": "Feature", "properties": { "Id": 0, "Nombre": "Laguneta \r\nLa Resignada", "CATEGORIA": "32", "Descrip": "Laguneta", "Lugar": "Laguneta \r\nLa Resignada" }, "geometry": { "type": "Point", "coordinates": [ -90.585110933192553, 17.327093678070558 ] } },
{ "type": "Feature", "properties": { "Id": 0, "Nombre": "CHOCOP", "CATEGORIA": "10", "Descrip": "Paraje", "Lugar": "Chocop" }, "geometry": { "type": "Point", "coordinates": [ -90.570355059900891, 17.288677720295137 ] } },
{ "type": "Feature", "properties": { "Id": 0, "Nombre": "Laguneta\r\nEl Aguacate", "CATEGORIA": "32", "Descrip": "Laguneta", "Lugar": "Laguneta\r\nEl Aguacate" }, "geometry": { "type": "Point", "coordinates": [ -90.560587666594969, 17.316705976243071 ] } },
{ "type": "Feature", "properties": { "Id": 0, "Nombre": "Laguneta\r\nLos Campitos", "CATEGORIA": "32", "Descrip": "Laguneta", "Lugar": "Laguneta\r\nLos Campitos" }, "geometry": { "type": "Point", "coordinates": [ -90.546831927131535, 17.303367489402934 ] } },
{ "type": "Feature", "properties": { "Id": 0, "Nombre": "Pantano\r\nLos Médanos", "CATEGORIA": "41", "Descrip": "Otros nombres en azul", "Lugar": "Pantano\r\nLos Médanos" }, "geometry": { "type": "Point", "coordinates": [ -90.513842606282523, 17.289896962685731 ] } },
{ "type": "Feature", "properties": { "Id": 0, "Nombre": "ENSENADA GRANDE", "CATEGORIA": "10", "Descrip": "Paraje", "Lugar": "Ensenada Grande" }, "geometry": { "type": "Point", "coordinates": [ -90.514932716009795, 17.266331498048661 ] } },
{ "type": "Feature", "properties": { "Id": 0, "Nombre": "Laguneta\r\nEl Güech", "CATEGORIA": "32", "Descrip": "Laguneta", "Lugar": "Laguneta\r\nEl Güech" }, "geometry": { "type": "Point", "coordinates": [ -90.550428637695319, 17.273884029773257 ] } },
{ "type": "Feature", "properties": { "Id": 0, "Nombre": "MACTÚN", "CATEGORIA": "18", "Descrip": "Parcelamientos, Colonias, Barrios, Lotificaciones o similares", "Lugar": "Mactún" }, "geometry": { "type": "Point", "coordinates": [ -90.713274589343143, 17.265289232840448 ] } },
{ "type": "Feature", "properties": { "Id": 0, "Nombre": "Las Corrientes de Mactún", "CATEGORIA": "06", "Descrip": "Caserío", "Lugar": "Las Corrientes De Mactún" }, "geometry": { "type": "Point", "coordinates": [ -90.740474591218003, 17.26506599623135 ] } },
{ "type": "Feature", "properties": { "Id": 0, "Nombre": "Sitio\r\nArqueológico\r\nMactún", "CATEGORIA": "11", "Descrip": "Sitios arqueológicos", "Lugar": "Sitio\r\nArqueológico\r\nMactún" }, "geometry": { "type": "Point", "coordinates": [ -90.74909606522165, 17.256133552357714 ] } },
{ "type": "Feature", "properties": { "Id": 0, "Nombre": "TUSPÁN", "CATEGORIA": "10", "Descrip": "Paraje", "Lugar": "Tuspán" }, "geometry": { "type": "Point", "coordinates": [ -90.633143297459469, 17.228989649572579 ] } },
{ "type": "Feature", "properties": { "Id": 0, "Nombre": "Laguneta Tuspán", "CATEGORIA": "32", "Descrip": "Laguneta", "Lugar": "Laguneta Tuspán" }, "geometry": { "type": "Point", "coordinates": [ -90.632344831862412, 17.239602217057307 ] } },
{ "type": "Feature", "properties": { "Id": 0, "Nombre": "EL PORVENIR", "CATEGORIA": "10", "Descrip": "Paraje", "Lugar": "El Porvenir" }, "geometry": { "type": "Point", "coordinates": [ -90.618171953989687, 17.189724381024721 ] } },
{ "type": "Feature", "properties": { "Id": 0, "Nombre": "Laguneta Agua Dulce", "CATEGORIA": "32", "Descrip": "Laguneta", "Lugar": "Laguneta Agua Dulce" }, "geometry": { "type": "Point", "coordinates": [ -90.602232891746823, 17.191765994628941 ] } },
{ "type": "Feature", "properties": { "Id": 0, "Nombre": "SIERRA DEL LACANDÓN", "CATEGORIA": "17", "Descrip": "Montañas, Sierras, Lomas o similares", "Lugar": "Sierra Del Lacandón" }, "geometry": { "type": "Point", "coordinates": [ -91.105264829073818, 17.198138646141906 ] } },
{ "type": "Feature", "properties": { "Id": 0, "Nombre": "Laguneta El Repasito", "CATEGORIA": "32", "Descrip": "Laguneta", "Lugar": "Laguneta El Repasito" }, "geometry": { "type": "Point", "coordinates": [ -91.130848950138684, 17.249621340872398 ] } },
{ "type": "Feature", "properties": { "Id": 0, "Nombre": "Laguna\r\nEl Repasto", "CATEGORIA": "31", "Descrip": "Laguna", "Lugar": "Laguna\r\nEl Repasto" }, "geometry": { "type": "Point", "coordinates": [ -91.02508572498941, 17.217918754124163 ] } },
{ "type": "Feature", "properties": { "Id": 0, "Nombre": "LAGUNA\r\nEL REPASTO", "CATEGORIA": "31", "Descrip": "Laguna", "Lugar": "Laguna\r\nEl Repasto" }, "geometry": { "type": "Point", "coordinates": [ -91.007254421447101, 17.184516592860334 ] } },
{ "type": "Feature", "properties": { "Id": 0, "Nombre": "LAGO PETÉN ITZÁ", "CATEGORIA": "30", "Descrip": "Lago", "Lugar": "Lago Petén Itzá" }, "geometry": { "type": "Point", "coordinates": [ -89.74822406497556, 17.002178087409575 ] } },
{ "type": "Feature", "properties": { "Id": 0, "Nombre": "Cerro Cahul", "CATEGORIA": "16", "Descrip": "Cerros", "Lugar": "Cerro Cahul" }, "geometry": { "type": "Point", "coordinates": [ -89.71914631916124, 16.998792759261519 ] } },
{ "type": "Feature", "properties": { "Id": 0, "Nombre": "GRINGO PERDIDO", "CATEGORIA": "10", "Descrip": "Paraje", "Lugar": "Gringo Perdido" }, "geometry": { "type": "Point", "coordinates": [ -89.72199210927235, 16.993709248253374 ] } },
{ "type": "Feature", "properties": { "Id": 0, "Nombre": "Piedra Blanca", "CATEGORIA": "06", "Descrip": "Caserío", "Lugar": "Piedra Blanca" }, "geometry": { "type": "Point", "coordinates": [ -89.692920255328787, 16.995361348811567 ] } },
{ "type": "Feature", "properties": { "Id": 0, "Nombre": "MIRAMAR", "CATEGORIA": "18", "Descrip": "Parcelamientos, Colonias, Barrios, Lotificaciones o similares", "Lugar": "Miramar" }, "geometry": { "type": "Point", "coordinates": [ -89.702201856274542, 16.995423546399451 ] } },
{ "type": "Feature", "properties": { "Id": 0, "Nombre": "El Remate", "CATEGORIA": "05", "Descrip": "Aldea", "Lugar": "El Remate" }, "geometry": { "type": "Point", "coordinates": [ -89.690514000515435, 16.991077333546873 ] } },
{ "type": "Feature", "properties": { "Id": 0, "Nombre": "La Reforma", "CATEGORIA": "05", "Descrip": "Aldea", "Lugar": "La Reforma" }, "geometry": { "type": "Point", "coordinates": [ -89.691376286100564, 16.983839650190454 ] } },
{ "type": "Feature", "properties": { "Id": 0, "Nombre": "Laguneta Salpetén\r\n(Salada)", "CATEGORIA": "32", "Descrip": "Laguneta", "Lugar": "Laguneta Salpetén\r\n(salada)" }, "geometry": { "type": "Point", "coordinates": [ -89.672484456939401, 16.981586233716392 ] } },
{ "type": "Feature", "properties": { "Id": 0, "Nombre": "Macanché", "CATEGORIA": "06", "Descrip": "Caserío", "Lugar": "Macanché" }, "geometry": { "type": "Point", "coordinates": [ -89.640243961145799, 16.965227574012491 ] } },
{ "type": "Feature", "properties": { "Id": 0, "Nombre": "Laguneta Macanché", "CATEGORIA": "32", "Descrip": "Laguneta", "Lugar": "Laguneta Macanché" }, "geometry": { "type": "Point", "coordinates": [ -89.6344015200699, 16.96822626619911 ] } },
{ "type": "Feature", "properties": { "Id": 0, "Nombre": "Laguneta El Burro", "CATEGORIA": "32", "Descrip": "Laguneta", "Lugar": "Laguneta El Burro" }, "geometry": { "type": "Point", "coordinates": [ -89.620137597476059, 16.979662943316477 ] } },
{ "type": "Feature", "properties": { "Id": 0, "Nombre": "Laguneta El Botanal", "CATEGORIA": "32", "Descrip": "Laguneta", "Lugar": "Laguneta El Botanal" }, "geometry": { "type": "Point", "coordinates": [ -89.612193935947829, 16.987047450323523 ] } },
{ "type": "Feature", "properties": { "Id": 0, "Nombre": "Laguneta El Tintal", "CATEGORIA": "32", "Descrip": "Laguneta", "Lugar": "Laguneta El Tintal" }, "geometry": { "type": "Point", "coordinates": [ -89.619701906519524, 16.988587143865146 ] } },
{ "type": "Feature", "properties": { "Id": 0, "Nombre": "El Zapote", "CATEGORIA": "06", "Descrip": "Caserío", "Lugar": "El Zapote" }, "geometry": { "type": "Point", "coordinates": [ -89.512483796495502, 16.947607488313086 ] } },
{ "type": "Feature", "properties": { "Id": 0, "Nombre": "Manantial", "CATEGORIA": "06", "Descrip": "Caserío", "Lugar": "Manantial" }, "geometry": { "type": "Point", "coordinates": [ -89.537871088384151, 16.945917822982292 ] } },
{ "type": "Feature", "properties": { "Id": 0, "Nombre": "MONTERREY", "CATEGORIA": "10", "Descrip": "Paraje", "Lugar": "Monterrey" }, "geometry": { "type": "Point", "coordinates": [ -89.560111831549648, 16.950538520229351 ] } },
{ "type": "Feature", "properties": { "Id": 0, "Nombre": "El Naranjo", "CATEGORIA": "06", "Descrip": "Caserío", "Lugar": "El Naranjo" }, "geometry": { "type": "Point", "coordinates": [ -89.590541683123703, 16.954586633677895 ] } },
{ "type": "Feature", "properties": { "Id": 0, "Nombre": "Monterrico", "CATEGORIA": "06", "Descrip": "Caserío", "Lugar": "Monterrico" }, "geometry": { "type": "Point", "coordinates": [ -89.53159892399357, 16.861985632747757 ] } },
{ "type": "Feature", "properties": { "Id": 0, "Nombre": "El Canchén", "CATEGORIA": "06", "Descrip": "Caserío", "Lugar": "El Canchén" }, "geometry": { "type": "Point", "coordinates": [ -89.960736091414532, 17.162897808364409 ] } },
{ "type": "Feature", "properties": { "Id": 0, "Nombre": "El Sibal", "CATEGORIA": "06", "Descrip": "Caserío", "Lugar": "El Sibal" }, "geometry": { "type": "Point", "coordinates": [ -89.988326720309047, 17.143573519337586 ] } },
{ "type": "Feature", "properties": { "Id": 0, "Nombre": "Cruce Dos Aguadas o Chunillá", "CATEGORIA": "06", "Descrip": "Caserío", "Lugar": "Cruce Dos Aguadas O Chunillá" }, "geometry": { "type": "Point", "coordinates": [ -89.927957777314163, 17.151559942006731 ] } },
{ "type": "Feature", "properties": { "Id": 0, "Nombre": "El Corozal", "CATEGORIA": "06", "Descrip": "Caserío", "Lugar": "El Corozal" }, "geometry": { "type": "Point", "coordinates": [ -89.885277739063994, 17.127463201034544 ] } },
{ "type": "Feature", "properties": { "Id": 0, "Nombre": "PARCELAMIENTO AGRARIO\r\nKILÓMETRO VEINTE", "CATEGORIA": "18", "Descrip": "Parcelamientos, Colonias, Barrios, Lotificaciones o similares", "Lugar": "Parcelamiento Agrario\r\nKilómetro Veinte" }, "geometry": { "type": "Point", "coordinates": [ -89.910775083552068, 17.11821771819681 ] } },
{ "type": "Feature", "properties": { "Id": 0, "Nombre": "PARCELAMIENTO AGRARIO\r\nKILÓMETRO DIECIOCHO", "CATEGORIA": "18", "Descrip": "Parcelamientos, Colonias, Barrios, Lotificaciones o similares", "Lugar": "Parcelamiento Agrario\r\nKilómetro Dieciocho" }, "geometry": { "type": "Point", "coordinates": [ -89.93136504559412, 17.096662766248667 ] } },
{ "type": "Feature", "properties": { "Id": 0, "Nombre": "Hacienda Papactún", "CATEGORIA": "08", "Descrip": "Ranchería o Hacienda", "Lugar": "Hacienda Papactún" }, "geometry": { "type": "Point", "coordinates": [ -89.961726181488928, 17.113893036978482 ] } },
{ "type": "Feature", "properties": { "Id": 0, "Nombre": "Chultún", "CATEGORIA": "06", "Descrip": "Caserío", "Lugar": "Chultún" }, "geometry": { "type": "Point", "coordinates": [ -89.963643353193035, 17.061009950448973 ] } },
{ "type": "Feature", "properties": { "Id": 0, "Nombre": "Ixairío", "CATEGORIA": "06", "Descrip": "Caserío", "Lugar": "Ixairío" }, "geometry": { "type": "Point", "coordinates": [ -89.963591232673508, 17.070183046434035 ] } },
{ "type": "Feature", "properties": { "Id": 0, "Nombre": "Acté", "CATEGORIA": "06", "Descrip": "Caserío", "Lugar": "Acté" }, "geometry": { "type": "Point", "coordinates": [ -89.949626568518596, 17.069880753541177 ] } },
{ "type": "Feature", "properties": { "Id": 0, "Nombre": "Sitio Arqueológico\r\nActé", "CATEGORIA": "11", "Descrip": "Sitios arqueológicos", "Lugar": "Sitio Arqueológico\r\nActé" }, "geometry": { "type": "Point", "coordinates": [ -89.933310490011081, 17.077881634153755 ] } },
{ "type": "Feature", "properties": { "Id": 0, "Nombre": "La Esperanza", "CATEGORIA": "06", "Descrip": "Caserío", "Lugar": "La Esperanza" }, "geometry": { "type": "Point", "coordinates": [ -89.940311376177945, 17.062141958964578 ] } },
{ "type": "Feature", "properties": { "Id": 0, "Nombre": "Sitio Arqueológico", "CATEGORIA": "11", "Descrip": "Sitios arqueológicos", "Lugar": "Sitio Arqueológico" }, "geometry": { "type": "Point", "coordinates": [ -89.901205985617338, 17.067571216857196 ] } },
{ "type": "Feature", "properties": { "Id": 0, "Nombre": "Jobomó", "CATEGORIA": "06", "Descrip": "Caserío", "Lugar": "Jobomó" }, "geometry": { "type": "Point", "coordinates": [ -89.907536400379428, 17.057567775187117 ] } },
{ "type": "Feature", "properties": { "Id": 0, "Nombre": "El Arroyo", "CATEGORIA": "06", "Descrip": "Caserío", "Lugar": "El Arroyo" }, "geometry": { "type": "Point", "coordinates": [ -89.838065259454112, 17.058627958115011 ] } },
{ "type": "Feature", "properties": { "Id": 0, "Nombre": "El Guineo", "CATEGORIA": "06", "Descrip": "Caserío", "Lugar": "El Guineo" }, "geometry": { "type": "Point", "coordinates": [ -89.857712848018608, 17.076074950631643 ] } },
{ "type": "Feature", "properties": { "Id": 0, "Nombre": "El Güiro", "CATEGORIA": "06", "Descrip": "Caserío", "Lugar": "El Güiro" }, "geometry": { "type": "Point", "coordinates": [ -89.789630739499145, 17.068892842421782 ] } },
{ "type": "Feature", "properties": { "Id": 0, "Nombre": "El Ramonal", "CATEGORIA": "06", "Descrip": "Caserío", "Lugar": "El Ramonal" }, "geometry": { "type": "Point", "coordinates": [ -89.763130372944033, 17.069490615744829 ] } },
{ "type": "Feature", "properties": { "Id": 0, "Nombre": "El Tintal", "CATEGORIA": "06", "Descrip": "Caserío", "Lugar": "El Tintal" }, "geometry": { "type": "Point", "coordinates": [ -89.776585966929574, 17.043206631580169 ] } },
{ "type": "Feature", "properties": { "Id": 0, "Nombre": "El Huacut", "CATEGORIA": "06", "Descrip": "Caserío", "Lugar": "El Huacut" }, "geometry": { "type": "Point", "coordinates": [ -89.879895042620575, 17.028234762361045 ] } },
{ "type": "Feature", "properties": { "Id": 0, "Nombre": "Hacienda El Jobomó", "CATEGORIA": "08", "Descrip": "Ranchería o Hacienda", "Lugar": "Hacienda El Jobomó" }, "geometry": { "type": "Point", "coordinates": [ -89.892120486860648, 17.040282682885454 ] } },
{ "type": "Feature", "properties": { "Id": 0, "Nombre": "Cantetul", "CATEGORIA": "06", "Descrip": "Caserío", "Lugar": "Cantetul" }, "geometry": { "type": "Point", "coordinates": [ -89.901528641531769, 17.042187032400207 ] } },
{ "type": "Feature", "properties": { "Id": 0, "Nombre": "BAJO DE CANTETUL", "CATEGORIA": "10", "Descrip": "Paraje", "Lugar": "Bajo De Cantetul" }, "geometry": { "type": "Point", "coordinates": [ -89.924814186183013, 17.026047089524759 ] } },
{ "type": "Feature", "properties": { "Id": 0, "Nombre": "Hogar de Beneficencia\r\nRancho de los Niños", "CATEGORIA": "12", "Descrip": "Entidades", "Lugar": "Hogar De Beneficencia\r\nRancho De Los Niños" }, "geometry": { "type": "Point", "coordinates": [ -89.916382129144765, 17.046860961240732 ] } },
{ "type": "Feature", "properties": { "Id": 0, "Nombre": "Ixconob", "CATEGORIA": "06", "Descrip": "Caserío", "Lugar": "Ixconob" }, "geometry": { "type": "Point", "coordinates": [ -89.94539533704949, 17.045724365118449 ] } },
{ "type": "Feature", "properties": { "Id": 0, "Nombre": "Sayab", "CATEGORIA": "06", "Descrip": "Caserío", "Lugar": "Sayab" }, "geometry": { "type": "Point", "coordinates": [ -89.986158967908224, 17.032711603331187 ] } },
{ "type": "Feature", "properties": { "Id": 0, "Nombre": "Bonxaján", "CATEGORIA": "06", "Descrip": "Caserío", "Lugar": "Bonxaján" }, "geometry": { "type": "Point", "coordinates": [ -89.956527698883164, 17.018555365615562 ] } },
{ "type": "Feature", "properties": { "Id": 0, "Nombre": "Finca Providencia", "CATEGORIA": "07", "Descrip": "Finca", "Lugar": "Finca Providencia" }, "geometry": { "type": "Point", "coordinates": [ -89.882961007076787, 17.005950791228873 ] } },
{ "type": "Feature", "properties": { "Id": 0, "Nombre": "Ensenada La Trinidad", "CATEGORIA": "39", "Descrip": "Ensenada", "Lugar": "Ensenada La Trinidad" }, "geometry": { "type": "Point", "coordinates": [ -89.880772680800703, 17.004342027547018 ] } },
{ "type": "Feature", "properties": { "Id": 0, "Nombre": "LA TRINIDAD", "CATEGORIA": "10", "Descrip": "Paraje", "Lugar": "La Trinidad" }, "geometry": { "type": "Point", "coordinates": [ -89.881573213407705, 17.008338675214926 ] } },
{ "type": "Feature", "properties": { "Id": 0, "Nombre": "XILIL", "CATEGORIA": "10", "Descrip": "Paraje", "Lugar": "Xilil" }, "geometry": { "type": "Point", "coordinates": [ -89.876218434662363, 17.006032671179018 ] } },
{ "type": "Feature", "properties": { "Id": 0, "Nombre": "Granja Rancho Olga", "CATEGORIA": "09", "Descrip": "Granja, Labor o similar", "Lugar": "Granja Rancho Olga" }, "geometry": { "type": "Point", "coordinates": [ -89.858618661584046, 17.010394522312986 ] } },
{ "type": "Feature", "properties": { "Id": 0, "Nombre": "La Gloria", "CATEGORIA": "06", "Descrip": "Caserío", "Lugar": "La Gloria" }, "geometry": { "type": "Point", "coordinates": [ -89.856191579672924, 17.011561567491242 ] } },
{ "type": "Feature", "properties": { "Id": 0, "Nombre": "PLAYA BLANCA", "CATEGORIA": "10", "Descrip": "Paraje", "Lugar": "Playa Blanca" }, "geometry": { "type": "Point", "coordinates": [ -89.852130817256182, 17.012517977762212 ] } },
{ "type": "Feature", "properties": { "Id": 0, "Nombre": "CHACHACLÚN", "CATEGORIA": "10", "Descrip": "Paraje", "Lugar": "Chachaclún" }, "geometry": { "type": "Point", "coordinates": [ -89.846380454712303, 17.010853698108306 ] } },
{ "type": "Feature", "properties": { "Id": 0, "Nombre": "San Pedro", "CATEGORIA": "06", "Descrip": "Caserío", "Lugar": "San Pedro" }, "geometry": { "type": "Point", "coordinates": [ -89.837867566713896, 17.013130567008147 ] } },
{ "type": "Feature", "properties": { "Id": 0, "Nombre": "Finca San Román", "CATEGORIA": "07", "Descrip": "Finca", "Lugar": "Finca San Román" }, "geometry": { "type": "Point", "coordinates": [ -89.832128297979452, 17.010817478128118 ] } },
{ "type": "Feature", "properties": { "Id": 0, "Nombre": "CHUCÁN", "CATEGORIA": "10", "Descrip": "Paraje", "Lugar": "Chucán" }, "geometry": { "type": "Point", "coordinates": [ -89.816105768338147, 17.012976261921953 ] } },
{ "type": "Feature", "properties": { "Id": 0, "Nombre": "AJINTÚN", "CATEGORIA": "10", "Descrip": "Paraje", "Lugar": "Ajintún" }, "geometry": { "type": "Point", "coordinates": [ -89.81045060108022, 17.011405152804272 ] } },
{ "type": "Feature", "properties": { "Id": 0, "Nombre": "Uspetén", "CATEGORIA": "06", "Descrip": "Caserío", "Lugar": "Uspetén" }, "geometry": { "type": "Point", "coordinates": [ -89.803689358324291, 17.012596138207741 ] } },
{ "type": "Feature", "properties": { "Id": 0, "Nombre": "El Quetzal", "CATEGORIA": "06", "Descrip": "Caserío", "Lugar": "El Quetzal" }, "geometry": { "type": "Point", "coordinates": [ -89.787003903431398, 17.014093551823542 ] } },
{ "type": "Feature", "properties": { "Id": 0, "Nombre": "Jobompiche", "CATEGORIA": "06", "Descrip": "Caserío", "Lugar": "Jobompiche" }, "geometry": { "type": "Point", "coordinates": [ -89.771407631708271, 17.01384647028495 ] } },
{ "type": "Feature", "properties": { "Id": 0, "Nombre": "LAGO PETÉN ITZÁ", "CATEGORIA": "30", "Descrip": "Lago", "Lugar": "Lago Petén Itzá" }, "geometry": { "type": "Point", "coordinates": [ -89.824718733484573, 17.004771949596559 ] } },
{ "type": "Feature", "properties": { "Id": 0, "Nombre": "PIEDRA DE NEMEGUEY", "CATEGORIA": "10", "Descrip": "Paraje", "Lugar": "Piedra De Nemeguey" }, "geometry": { "type": "Point", "coordinates": [ -91.115551129232713, 16.975237802028818 ] } },
{ "type": "Feature", "properties": { "Id": 0, "Nombre": "OTATAL", "CATEGORIA": "10", "Descrip": "Paraje", "Lugar": "Otatal" }, "geometry": { "type": "Point", "coordinates": [ -91.062119272323656, 16.920465307141772 ] } },
{ "type": "Feature", "properties": { "Id": 0, "Nombre": "SALVAMENTO", "CATEGORIA": "10", "Descrip": "Paraje", "Lugar": "Salvamento" }, "geometry": { "type": "Point", "coordinates": [ -91.055973002792712, 16.900581719392669 ] } },
{ "type": "Feature", "properties": { "Id": 0, "Nombre": "Laguneta\r\nLa Gardunza", "CATEGORIA": "32", "Descrip": "Laguneta", "Lugar": "Laguneta\r\nLa Gardunza" }, "geometry": { "type": "Point", "coordinates": [ -91.003810943816973, 16.891819242013288 ] } },
{ "type": "Feature", "properties": { "Id": 0, "Nombre": "La Máquina", "CATEGORIA": "06", "Descrip": "Caserío", "Lugar": "La Máquina" }, "geometry": { "type": "Point", "coordinates": [ -89.409933535054208, 16.98680409007796 ] } },
{ "type": "Feature", "properties": { "Id": 0, "Nombre": "La Esperanza", "CATEGORIA": "06", "Descrip": "Caserío", "Lugar": "La Esperanza" }, "geometry": { "type": "Point", "coordinates": [ -89.418576448762479, 16.981960617789081 ] } },
{ "type": "Feature", "properties": { "Id": 0, "Nombre": "Finca Buena Vista", "CATEGORIA": "07", "Descrip": "Finca", "Lugar": "Finca Buena Vista" }, "geometry": { "type": "Point", "coordinates": [ -89.439391055634658, 16.968611660314544 ] } },
{ "type": "Feature", "properties": { "Id": 0, "Nombre": "Las Viñas", "CATEGORIA": "06", "Descrip": "Caserío", "Lugar": "Las Viñas" }, "geometry": { "type": "Point", "coordinates": [ -89.443982968775373, 16.968006155311961 ] } },
{ "type": "Feature", "properties": { "Id": 0, "Nombre": "Los Tulipanes", "CATEGORIA": "06", "Descrip": "Caserío", "Lugar": "Los Tulipanes" }, "geometry": { "type": "Point", "coordinates": [ -89.385823877207599, 16.985985593511582 ] } },
{ "type": "Feature", "properties": { "Id": 0, "Nombre": "BAJO DEL VENADO", "CATEGORIA": "10", "Descrip": "Paraje", "Lugar": "Bajo Del Venado" }, "geometry": { "type": "Point", "coordinates": [ -89.375222281474009, 16.997355369885558 ] } },
{ "type": "Feature", "properties": { "Id": 0, "Nombre": "Sal Si Puedes", "CATEGORIA": "06", "Descrip": "Caserío", "Lugar": "Sal Si Puedes" }, "geometry": { "type": "Point", "coordinates": [ -89.359650922168001, 16.965537293673471 ] } },
{ "type": "Feature", "properties": { "Id": 0, "Nombre": "El Cruzadero", "CATEGORIA": "06", "Descrip": "Caserío", "Lugar": "El Cruzadero" }, "geometry": { "type": "Point", "coordinates": [ -89.260869265922068, 16.978831437821647 ] } },
{ "type": "Feature", "properties": { "Id": 0, "Nombre": "Finca El Remanso", "CATEGORIA": "07", "Descrip": "Finca", "Lugar": "Finca El Remanso" }, "geometry": { "type": "Point", "coordinates": [ -89.265188491992461, 16.93542456041077 ] } },
{ "type": "Feature", "properties": { "Id": 0, "Nombre": "Salpet", "CATEGORIA": "06", "Descrip": "Caserío", "Lugar": "Salpet" }, "geometry": { "type": "Point", "coordinates": [ -89.276775190788541, 16.930935037501339 ] } },
{ "type": "Feature", "properties": { "Id": 0, "Nombre": "Laguneta\r\nLa Blanca", "CATEGORIA": "32", "Descrip": "Laguneta", "Lugar": "Laguneta\r\nLa Blanca" }, "geometry": { "type": "Point", "coordinates": [ -89.420363392651197, 16.930663125366408 ] } },
{ "type": "Feature", "properties": { "Id": 0, "Nombre": "Finca Buenos Aires", "CATEGORIA": "07", "Descrip": "Finca", "Lugar": "Finca Buenos Aires" }, "geometry": { "type": "Point", "coordinates": [ -89.453589797043222, 16.960532813557737 ] } },
{ "type": "Feature", "properties": { "Id": 0, "Nombre": "LA SONRISA", "CATEGORIA": "10", "Descrip": "Paraje", "Lugar": "La Sonrisa" }, "geometry": { "type": "Point", "coordinates": [ -89.460977594203399, 16.951942824976282 ] } },
{ "type": "Feature", "properties": { "Id": 0, "Nombre": "LA ESPERANZA", "CATEGORIA": "10", "Descrip": "Paraje", "Lugar": "La Esperanza" }, "geometry": { "type": "Point", "coordinates": [ -89.494875079814392, 16.946258718947067 ] } },
{ "type": "Feature", "properties": { "Id": 0, "Nombre": "Los Encuentros", "CATEGORIA": "06", "Descrip": "Caserío", "Lugar": "Los Encuentros" }, "geometry": { "type": "Point", "coordinates": [ -89.483271763969441, 16.951740768802722 ] } },
{ "type": "Feature", "properties": { "Id": 0, "Nombre": "La Linterna", "CATEGORIA": "06", "Descrip": "Caserío", "Lugar": "La Linterna" }, "geometry": { "type": "Point", "coordinates": [ -89.499208574954082, 16.948586287944092 ] } },
{ "type": "Feature", "properties": { "Id": 0, "Nombre": "Karst", "CATEGORIA": "06", "Descrip": "Caserío", "Lugar": "Karst" }, "geometry": { "type": "Point", "coordinates": [ -89.48679036280285, 16.899293780455093 ] } },
{ "type": "Feature", "properties": { "Id": 0, "Nombre": "La Blanca", "CATEGORIA": "06", "Descrip": "Caserío", "Lugar": "La Blanca" }, "geometry": { "type": "Point", "coordinates": [ -89.454131402622409, 16.893636152837644 ] } },
{ "type": "Feature", "properties": { "Id": 0, "Nombre": "Laguneta\r\nLa Colorada", "CATEGORIA": "32", "Descrip": "Laguneta", "Lugar": "Laguneta\r\nLa Colorada" }, "geometry": { "type": "Point", "coordinates": [ -89.452121808787311, 16.89771558679816 ] } },
{ "type": "Feature", "properties": { "Id": 0, "Nombre": "El Naranjo", "CATEGORIA": "06", "Descrip": "Caserío", "Lugar": "El Naranjo" }, "geometry": { "type": "Point", "coordinates": [ -89.30207090940992, 16.886144095117306 ] } },
{ "type": "Feature", "properties": { "Id": 0, "Nombre": "Área arqueológica Ucanal Dos", "CATEGORIA": "11", "Descrip": "Sitios arqueológicos", "Lugar": "Área Arqueológica Ucanal Dos" }, "geometry": { "type": "Point", "coordinates": [ -89.3883374794773, 16.859670488052892 ] } },
{ "type": "Feature", "properties": { "Id": 0, "Nombre": "Sitio Arqueológico\r\nYaltitud", "CATEGORIA": "11", "Descrip": "Sitios arqueológicos", "Lugar": "Sitio Arqueológico\r\nYaltitud" }, "geometry": { "type": "Point", "coordinates": [ -89.373900816238304, 16.869896386238032 ] } },
{ "type": "Feature", "properties": { "Id": 0, "Nombre": "Laguneta\r\nLos Lagartos", "CATEGORIA": "32", "Descrip": "Laguneta", "Lugar": "Laguneta\r\nLos Lagartos" }, "geometry": { "type": "Point", "coordinates": [ -89.49413115637789, 16.854454783461673 ] } },
{ "type": "Feature", "properties": { "Id": 0, "Nombre": "Los Lagartos", "CATEGORIA": "06", "Descrip": "Caserío", "Lugar": "Los Lagartos" }, "geometry": { "type": "Point", "coordinates": [ -89.493034142632837, 16.853260459520556 ] } },
{ "type": "Feature", "properties": { "Id": 0, "Nombre": "Área arqueológica Naranjo", "CATEGORIA": "11", "Descrip": "Sitios arqueológicos", "Lugar": "Área Arqueológica Naranjo" }, "geometry": { "type": "Point", "coordinates": [ -89.267076250435437, 17.141428410848111 ] } },
{ "type": "Feature", "properties": { "Id": 0, "Nombre": "Sitio arquelógico", "CATEGORIA": "11", "Descrip": "Sitios arqueológicos", "Lugar": "Sitio Arquelógico" }, "geometry": { "type": "Point", "coordinates": [ -89.37557995331764, 17.090361732411878 ] } },
{ "type": "Feature", "properties": { "Id": 0, "Nombre": "Sitio arquelógico", "CATEGORIA": "11", "Descrip": "Sitios arqueológicos", "Lugar": "Sitio Arquelógico" }, "geometry": { "type": "Point", "coordinates": [ -89.371590241179348, 17.086710639402725 ] } },
{ "type": "Feature", "properties": { "Id": 0, "Nombre": "Sitio arquelógico", "CATEGORIA": "11", "Descrip": "Sitios arqueológicos", "Lugar": "Sitio Arquelógico" }, "geometry": { "type": "Point", "coordinates": [ -89.446869470713906, 17.078282328612929 ] } },
{ "type": "Feature", "properties": { "Id": 0, "Nombre": "Sitios arquelógicos", "CATEGORIA": "11", "Descrip": "Sitios arqueológicos", "Lugar": "Sitios Arquelógicos" }, "geometry": { "type": "Point", "coordinates": [ -89.427001869813324, 17.055477712675941 ] } },
{ "type": "Feature", "properties": { "Id": 0, "Nombre": "Sitios arquelógicos", "CATEGORIA": "11", "Descrip": "Sitios arqueológicos", "Lugar": "Sitios Arquelógicos" }, "geometry": { "type": "Point", "coordinates": [ -89.426892419204819, 17.061225181314072 ] } },
{ "type": "Feature", "properties": { "Id": 0, "Nombre": "Sitio arquelógico", "CATEGORIA": "11", "Descrip": "Sitios arqueológicos", "Lugar": "Sitio Arquelógico" }, "geometry": { "type": "Point", "coordinates": [ -89.423579561982436, 17.075269016747793 ] } },
{ "type": "Feature", "properties": { "Id": 0, "Nombre": "Sitio arquelógico", "CATEGORIA": "11", "Descrip": "Sitios arqueológicos", "Lugar": "Sitio Arquelógico" }, "geometry": { "type": "Point", "coordinates": [ -89.421398002801013, 17.077291588944092 ] } },
{ "type": "Feature", "properties": { "Id": 0, "Nombre": "Sitio arqueológico Clemente Uno", "CATEGORIA": "11", "Descrip": "Sitios arqueológicos", "Lugar": "Sitio Arqueológico Clemente Uno" }, "geometry": { "type": "Point", "coordinates": [ -89.495440039542473, 17.056454859835011 ] } },
{ "type": "Feature", "properties": { "Id": 0, "Nombre": "Laguneta Champoxté", "CATEGORIA": "32", "Descrip": "Laguneta", "Lugar": "Laguneta Champoxté" }, "geometry": { "type": "Point", "coordinates": [ -89.488376753087834, 17.060238154852293 ] } },
{ "type": "Feature", "properties": { "Id": 0, "Nombre": "Laguneta\r\nLancajá", "CATEGORIA": "32", "Descrip": "Laguneta", "Lugar": "Laguneta\r\nLancajá" }, "geometry": { "type": "Point", "coordinates": [ -89.460293080787096, 17.066258814779939 ] } },
{ "type": "Feature", "properties": { "Id": 0, "Nombre": "Laguneta\r\nEl Juleque", "CATEGORIA": "32", "Descrip": "Laguneta", "Lugar": "Laguneta\r\nEl Juleque" }, "geometry": { "type": "Point", "coordinates": [ -89.449891628356383, 17.0675956586533 ] } },
{ "type": "Feature", "properties": { "Id": 0, "Nombre": "Sitio arqueológico Coloradito", "CATEGORIA": "11", "Descrip": "Sitios arqueológicos", "Lugar": "Sitio Arqueológico Coloradito" }, "geometry": { "type": "Point", "coordinates": [ -89.456328425888927, 17.061199372022621 ] } },
{ "type": "Feature", "properties": { "Id": 0, "Nombre": "Sitio arqueológico Escondido", "CATEGORIA": "11", "Descrip": "Sitios arqueológicos", "Lugar": "Sitio Arqueológico Escondido" }, "geometry": { "type": "Point", "coordinates": [ -89.438401251550872, 17.072818096702658 ] } },
{ "type": "Feature", "properties": { "Id": 0, "Nombre": "Sitio arqueológico Chac", "CATEGORIA": "11", "Descrip": "Sitios arqueológicos", "Lugar": "Sitio Arqueológico Chac" }, "geometry": { "type": "Point", "coordinates": [ -89.442819447400652, 17.065844459032022 ] } },
{ "type": "Feature", "properties": { "Id": 0, "Nombre": "Sitio arqueológico Topoxté", "CATEGORIA": "11", "Descrip": "Sitios arqueológicos", "Lugar": "Sitio Arqueológico Topoxté" }, "geometry": { "type": "Point", "coordinates": [ -89.430274638681539, 17.06128475633033 ] } },
{ "type": "Feature", "properties": { "Id": 0, "Nombre": "Islote Topoxté", "CATEGORIA": "26", "Descrip": "Islote", "Lugar": "Islote Topoxté" }, "geometry": { "type": "Point", "coordinates": [ -89.424604542992483, 17.062920513261663 ] } },
{ "type": "Feature", "properties": { "Id": 0, "Nombre": "Sitio arqueológico Ixtintó", "CATEGORIA": "11", "Descrip": "Sitios arqueológicos", "Lugar": "Sitio Arqueológico Ixtintó" }, "geometry": { "type": "Point", "coordinates": [ -89.430206638524737, 17.047072739523092 ] } },
{ "type": "Feature", "properties": { "Id": 0, "Nombre": "Sitio arqueológico\r\nLadrones", "CATEGORIA": "11", "Descrip": "Sitios arqueológicos", "Lugar": "Sitio Arqueológico\r\nLadrones" }, "geometry": { "type": "Point", "coordinates": [ -89.433465583091561, 17.047672448486253 ] } },
{ "type": "Feature", "properties": { "Id": 0, "Nombre": "Sitio arqueológico Tres Ollas", "CATEGORIA": "11", "Descrip": "Sitios arqueológicos", "Lugar": "Sitio Arqueológico Tres Ollas" }, "geometry": { "type": "Point", "coordinates": [ -89.416733819318964, 17.07937870697905 ] } },
{ "type": "Feature", "properties": { "Id": 0, "Nombre": "Sitio arqueológico Oxlaj", "CATEGORIA": "11", "Descrip": "Sitios arqueológicos", "Lugar": "Sitio Arqueológico Oxlaj" }, "geometry": { "type": "Point", "coordinates": [ -89.389997907414653, 17.073805660776951 ] } },
{ "type": "Feature", "properties": { "Id": 0, "Nombre": "Sitio arqueológico Yaxjá", "CATEGORIA": "11", "Descrip": "Sitios arqueológicos", "Lugar": "Sitio Arqueológico Yaxjá" }, "geometry": { "type": "Point", "coordinates": [ -89.39867685400273, 17.068210858708198 ] } },
{ "type": "Feature", "properties": { "Id": 0, "Nombre": "Sitio arqueológico", "CATEGORIA": "11", "Descrip": "Sitios arqueológicos", "Lugar": "Sitio Arqueológico" }, "geometry": { "type": "Point", "coordinates": [ -89.378329600449064, 17.064811018337036 ] } },
{ "type": "Feature", "properties": { "Id": 0, "Nombre": "Sitio\r\narqueológico Akalche", "CATEGORIA": "11", "Descrip": "Sitios arqueológicos", "Lugar": "Sitio\r\nArqueológico Akalche" }, "geometry": { "type": "Point", "coordinates": [ -89.355947993456581, 17.073304623724322 ] } },
{ "type": "Feature", "properties": { "Id": 0, "Nombre": "Sitio arqueológico La Escoba", "CATEGORIA": "11", "Descrip": "Sitios arqueológicos", "Lugar": "Sitio Arqueológico La Escoba" }, "geometry": { "type": "Point", "coordinates": [ -89.373962766828285, 17.080678608597363 ] } },
{ "type": "Feature", "properties": { "Id": 0, "Nombre": "LAGUNA YAXJÁ", "CATEGORIA": "31", "Descrip": "Laguna", "Lugar": "Laguna Yaxjá" }, "geometry": { "type": "Point", "coordinates": [ -89.410670404183804, 17.060287794668213 ] } },
{ "type": "Feature", "properties": { "Id": 0, "Nombre": "LAGUNA SACNAB", "CATEGORIA": "31", "Descrip": "Laguna", "Lugar": "Laguna Sacnab" }, "geometry": { "type": "Point", "coordinates": [ -89.367637148872191, 17.057894361949135 ] } },
{ "type": "Feature", "properties": { "Id": 0, "Nombre": "Sitio arqueológico", "CATEGORIA": "11", "Descrip": "Sitios arqueológicos", "Lugar": "Sitio Arqueológico" }, "geometry": { "type": "Point", "coordinates": [ -89.38941960432642, 17.0628393399872 ] } },
{ "type": "Feature", "properties": { "Id": 0, "Nombre": "Cooperativa Yaxjá", "CATEGORIA": "06", "Descrip": "Caserío", "Lugar": "Cooperativa Yaxjá" }, "geometry": { "type": "Point", "coordinates": [ -89.384711943655788, 17.055487620034448 ] } },
{ "type": "Feature", "properties": { "Id": 0, "Nombre": "Sitio arqueológico", "CATEGORIA": "11", "Descrip": "Sitios arqueológicos", "Lugar": "Sitio Arqueológico" }, "geometry": { "type": "Point", "coordinates": [ -89.387129415140819, 17.052927292509729 ] } },
{ "type": "Feature", "properties": { "Id": 0, "Nombre": "Sitio arqueológico\r\nCerro Yaxjá", "CATEGORIA": "11", "Descrip": "Sitios arqueológicos", "Lugar": "Sitio Arqueológico\r\nCerro Yaxjá" }, "geometry": { "type": "Point", "coordinates": [ -89.38921906058782, 17.049818712036881 ] } },
{ "type": "Feature", "properties": { "Id": 0, "Nombre": "Sitio arqueológico Kuch", "CATEGORIA": "11", "Descrip": "Sitios arqueológicos", "Lugar": "Sitio Arqueológico Kuch" }, "geometry": { "type": "Point", "coordinates": [ -89.392110223966924, 17.04607349606162 ] } },
{ "type": "Feature", "properties": { "Id": 0, "Nombre": "Sitio arqueológico Manax", "CATEGORIA": "11", "Descrip": "Sitios arqueológicos", "Lugar": "Sitio Arqueológico Manax" }, "geometry": { "type": "Point", "coordinates": [ -89.379771103958049, 17.036850329852314 ] } },
{ "type": "Feature", "properties": { "Id": 0, "Nombre": "Sitio arqueológico Perdido", "CATEGORIA": "11", "Descrip": "Sitios arqueológicos", "Lugar": "Sitio Arqueológico Perdido" }, "geometry": { "type": "Point", "coordinates": [ -89.376746010544124, 17.047535317710622 ] } },
{ "type": "Feature", "properties": { "Id": 0, "Nombre": "Sitio arqueológico Nojpetén", "CATEGORIA": "11", "Descrip": "Sitios arqueológicos", "Lugar": "Sitio Arqueológico Nojpetén" }, "geometry": { "type": "Point", "coordinates": [ -89.372405860519436, 17.050386558957655 ] } },
{ "type": "Feature", "properties": { "Id": 0, "Nombre": "Sitio arqueológico Napetén", "CATEGORIA": "11", "Descrip": "Sitios arqueológicos", "Lugar": "Sitio Arqueológico Napetén" }, "geometry": { "type": "Point", "coordinates": [ -89.372032885911509, 17.040508771078365 ] } },
{ "type": "Feature", "properties": { "Id": 0, "Nombre": "Sitio arqueológico Sacnab", "CATEGORIA": "11", "Descrip": "Sitios arqueológicos", "Lugar": "Sitio Arqueológico Sacnab" }, "geometry": { "type": "Point", "coordinates": [ -89.344661461211373, 17.056396799562755 ] } },
{ "type": "Feature", "properties": { "Id": 0, "Nombre": "Sitio arqueológico", "CATEGORIA": "11", "Descrip": "Sitios arqueológicos", "Lugar": "Sitio Arqueológico" }, "geometry": { "type": "Point", "coordinates": [ -89.3103750268385, 17.073889970098481 ] } },
{ "type": "Feature", "properties": { "Id": 0, "Nombre": "Sitio arqueológico\r\nTakín Sakún", "CATEGORIA": "11", "Descrip": "Sitios arqueológicos", "Lugar": "Sitio Arqueológico\r\nTakín Sakún" }, "geometry": { "type": "Point", "coordinates": [ -89.269453021317801, 17.030636537429974 ] } },
{ "type": "Feature", "properties": { "Id": 0, "Nombre": "VUELTA GRANDE", "CATEGORIA": "10", "Descrip": "Paraje", "Lugar": "Vuelta Grande" }, "geometry": { "type": "Point", "coordinates": [ -89.261945925994965, 17.025454958645788 ] } },
{ "type": "Feature", "properties": { "Id": 0, "Nombre": "Tziquín Tzacán", "CATEGORIA": "06", "Descrip": "Caserío", "Lugar": "Tziquín Tzacán" }, "geometry": { "type": "Point", "coordinates": [ -89.263324635072664, 17.028408826629519 ] } },
{ "type": "Feature", "properties": { "Id": 0, "Nombre": "EL INFIERNO", "CATEGORIA": "10", "Descrip": "Paraje", "Lugar": "El Infierno" }, "geometry": { "type": "Point", "coordinates": [ -89.287640479711342, 17.021696075438889 ] } },
{ "type": "Feature", "properties": { "Id": 0, "Nombre": "Finca\r\nEl Porvenir", "CATEGORIA": "07", "Descrip": "Finca", "Lugar": "Finca\r\nEl Porvenir" }, "geometry": { "type": "Point", "coordinates": [ -89.284138668789552, 17.019191588959195 ] } },
{ "type": "Feature", "properties": { "Id": 0, "Nombre": "San Antonio", "CATEGORIA": "06", "Descrip": "Caserío", "Lugar": "San Antonio" }, "geometry": { "type": "Point", "coordinates": [ -89.306827954276457, 17.013422641562382 ] } },
{ "type": "Feature", "properties": { "Id": 0, "Nombre": "La Pólvora", "CATEGORIA": "06", "Descrip": "Caserío", "Lugar": "La Pólvora" }, "geometry": { "type": "Point", "coordinates": [ -89.313950087958702, 17.008101410354705 ] } },
{ "type": "Feature", "properties": { "Id": 0, "Nombre": "Buena Vista", "CATEGORIA": "06", "Descrip": "Caserío", "Lugar": "Buena Vista" }, "geometry": { "type": "Point", "coordinates": [ -89.340250717573468, 17.007844398116202 ] } },
{ "type": "Feature", "properties": { "Id": 0, "Nombre": "BAJO VENADO", "CATEGORIA": "10", "Descrip": "Paraje", "Lugar": "Bajo Venado" }, "geometry": { "type": "Point", "coordinates": [ -89.360801120748164, 17.007643813124567 ] } },
{ "type": "Feature", "properties": { "Id": 0, "Nombre": "Laguneta\r\nEl Venado", "CATEGORIA": "32", "Descrip": "Laguneta", "Lugar": "Laguneta\r\nEl Venado" }, "geometry": { "type": "Point", "coordinates": [ -89.368475879740032, 17.004282767950542 ] } },
{ "type": "Feature", "properties": { "Id": 0, "Nombre": "Sitio arqueológico El Venado", "CATEGORIA": "11", "Descrip": "Sitios arqueológicos", "Lugar": "Sitio Arqueológico El Venado" }, "geometry": { "type": "Point", "coordinates": [ -89.372287316902572, 17.003944022388055 ] } },
{ "type": "Feature", "properties": { "Id": 0, "Nombre": "LA NAYA", "CATEGORIA": "10", "Descrip": "Paraje", "Lugar": "La Naya" }, "geometry": { "type": "Point", "coordinates": [ -89.467767423798293, 17.021165224201855 ] } },
{ "type": "Feature", "properties": { "Id": 0, "Nombre": "Sitio arqueológico La Naya", "CATEGORIA": "11", "Descrip": "Sitios arqueológicos", "Lugar": "Sitio Arqueológico La Naya" }, "geometry": { "type": "Point", "coordinates": [ -89.469614540963462, 17.017373279189023 ] } },
{ "type": "Feature", "properties": { "Id": 0, "Nombre": "Aguada del Tigre", "CATEGORIA": "41", "Descrip": "Otros nombres en azul", "Lugar": "Aguada Del Tigre" }, "geometry": { "type": "Point", "coordinates": [ -89.471320590329796, 17.016589280907535 ] } },
{ "type": "Feature", "properties": { "Id": 0, "Nombre": "Laguneta\r\nLa Pita", "CATEGORIA": "32", "Descrip": "Laguneta", "Lugar": "Laguneta\r\nLa Pita" }, "geometry": { "type": "Point", "coordinates": [ -90.940439031258563, 17.165056160163118 ] } },
{ "type": "Feature", "properties": { "Id": 0, "Nombre": "Laguneta\r\nLa Pita", "CATEGORIA": "32", "Descrip": "Laguneta", "Lugar": "Laguneta\r\nLa Pita" }, "geometry": { "type": "Point", "coordinates": [ -90.941913348007859, 17.169969296227276 ] } },
{ "type": "Feature", "properties": { "Id": 0, "Nombre": "Lagunitas", "CATEGORIA": "06", "Descrip": "Caserío", "Lugar": "Lagunitas" }, "geometry": { "type": "Point", "coordinates": [ -90.838889041994662, 17.167912779565768 ] } },
{ "type": "Feature", "properties": { "Id": 0, "Nombre": "Laguneta Bucutal", "CATEGORIA": "32", "Descrip": "Laguneta", "Lugar": "Laguneta Bucutal" }, "geometry": { "type": "Point", "coordinates": [ -90.811514257318208, 17.145332984689961 ] } },
{ "type": "Feature", "properties": { "Id": 0, "Nombre": "YALPINA", "CATEGORIA": "10", "Descrip": "Paraje", "Lugar": "Yalpina" }, "geometry": { "type": "Point", "coordinates": [ -90.805763889778319, 17.14698483100867 ] } },
{ "type": "Feature", "properties": { "Id": 0, "Nombre": "Santiaguito", "CATEGORIA": "06", "Descrip": "Caserío", "Lugar": "Santiaguito" }, "geometry": { "type": "Point", "coordinates": [ -90.850021272525822, 17.108155198134039 ] } },
{ "type": "Feature", "properties": { "Id": 0, "Nombre": "EL PARAÍSO", "CATEGORIA": "05", "Descrip": "Aldea", "Lugar": "El Paraíso" }, "geometry": { "type": "Point", "coordinates": [ -90.857775207720408, 17.087053942658233 ] } },
{ "type": "Feature", "properties": { "Id": 0, "Nombre": "Santa Amelia", "CATEGORIA": "06", "Descrip": "Caserío", "Lugar": "Santa Amelia" }, "geometry": { "type": "Point", "coordinates": [ -90.848029651719926, 17.070910100839274 ] } },
{ "type": "Feature", "properties": { "Id": 0, "Nombre": "SIERRA DEL LACANDÓN", "CATEGORIA": "17", "Descrip": "Montañas, Sierras, Lomas o similares", "Lugar": "Sierra Del Lacandón" }, "geometry": { "type": "Point", "coordinates": [ -90.922472570928619, 17.07389041033537 ] } },
{ "type": "Feature", "properties": { "Id": 0, "Nombre": "LAS ESCONDIDAS", "CATEGORIA": "10", "Descrip": "Paraje", "Lugar": "Las Escondidas" }, "geometry": { "type": "Point", "coordinates": [ -90.942915780397314, 17.067241402142866 ] } },
{ "type": "Feature", "properties": { "Id": 0, "Nombre": "Lagunetas Las Escondidas", "CATEGORIA": "32", "Descrip": "Laguneta", "Lugar": "Lagunetas Las Escondidas" }, "geometry": { "type": "Point", "coordinates": [ -90.946115614183825, 17.065681922738754 ] } },
{ "type": "Feature", "properties": { "Id": 0, "Nombre": "San José", "CATEGORIA": "06", "Descrip": "Caserío", "Lugar": "San José" }, "geometry": { "type": "Point", "coordinates": [ -90.826889833362372, 17.060521692583343 ] } },
{ "type": "Feature", "properties": { "Id": 0, "Nombre": "Las Flores", "CATEGORIA": "06", "Descrip": "Caserío", "Lugar": "Las Flores" }, "geometry": { "type": "Point", "coordinates": [ -90.778491771850085, 17.041141458471966 ] } },
{ "type": "Feature", "properties": { "Id": 0, "Nombre": "SIERRA LA PITA", "CATEGORIA": "17", "Descrip": "Montañas, Sierras, Lomas o similares", "Lugar": "Sierra La Pita" }, "geometry": { "type": "Point", "coordinates": [ -90.939777134222211, 17.2084197612465 ] } },
{ "type": "Feature", "properties": { "Id": 0, "Nombre": "LAGUNA\r\nEL REPASTO", "CATEGORIA": "31", "Descrip": "Laguna", "Lugar": "Laguna\r\nEl Repasto" }, "geometry": { "type": "Point", "coordinates": [ -90.995123723965989, 17.191834519307658 ] } },
{ "type": "Feature", "properties": { "Id": 0, "Nombre": "SIERRA\r\nDEL LACANDÓN", "CATEGORIA": "17", "Descrip": "Montañas, Sierras, Lomas o similares", "Lugar": "Sierra\r\nDel Lacandón" }, "geometry": { "type": "Point", "coordinates": [ -90.996622662725329, 17.170909483460285 ] } },
{ "type": "Feature", "properties": { "Id": 0, "Nombre": "GUAYACÁN", "CATEGORIA": "10", "Descrip": "Paraje", "Lugar": "Guayacán" }, "geometry": { "type": "Point", "coordinates": [ -90.985572197185874, 17.179738705597842 ] } },
{ "type": "Feature", "properties": { "Id": 0, "Nombre": "VERTICE EL CEIBO", "CATEGORIA": "10", "Descrip": "Paraje", "Lugar": "Vertice El Ceibo" }, "geometry": { "type": "Point", "coordinates": [ -90.986463347835397, 17.250404014404424 ] } },
{ "type": "Feature", "properties": { "Id": 0, "Nombre": "Laguneta El Chiquero", "CATEGORIA": "32", "Descrip": "Laguneta", "Lugar": "Laguneta El Chiquero" }, "geometry": { "type": "Point", "coordinates": [ -90.886080889838297, 17.280927673945673 ] } },
{ "type": "Feature", "properties": { "Id": 0, "Nombre": "Laguneta Real", "CATEGORIA": "32", "Descrip": "Laguneta", "Lugar": "Laguneta Real" }, "geometry": { "type": "Point", "coordinates": [ -90.917873149997888, 17.291428219900009 ] } },
{ "type": "Feature", "properties": { "Id": 0, "Nombre": "Laguneta La Profundidad", "CATEGORIA": "32", "Descrip": "Laguneta", "Lugar": "Laguneta La Profundidad" }, "geometry": { "type": "Point", "coordinates": [ -90.933711146261473, 17.277065955011313 ] } },
{ "type": "Feature", "properties": { "Id": 0, "Nombre": "Finca\r\nPortezuelo", "CATEGORIA": "07", "Descrip": "Finca", "Lugar": "Finca\r\nPortezuelo" }, "geometry": { "type": "Point", "coordinates": [ -90.981683193252849, 17.285581841387529 ] } },
{ "type": "Feature", "properties": { "Id": 0, "Nombre": "Laguneta Santa Clara", "CATEGORIA": "32", "Descrip": "Laguneta", "Lugar": "Laguneta Santa Clara" }, "geometry": { "type": "Point", "coordinates": [ -90.981904816425583, 17.279849957200089 ] } },
{ "type": "Feature", "properties": { "Id": 0, "Nombre": "Labor\r\nSanta Clara", "CATEGORIA": "09", "Descrip": "Granja, Labor o similar", "Lugar": "Labor\r\nSanta Clara" }, "geometry": { "type": "Point", "coordinates": [ -90.977580157464217, 17.275066230315254 ] } },
{ "type": "Feature", "properties": { "Id": 0, "Nombre": "Labor Guadalupe", "CATEGORIA": "09", "Descrip": "Granja, Labor o similar", "Lugar": "Labor Guadalupe" }, "geometry": { "type": "Point", "coordinates": [ -90.966275692021028, 17.268224040789075 ] } },
{ "type": "Feature", "properties": { "Id": 0, "Nombre": "El Ceibo", "CATEGORIA": "06", "Descrip": "Caserío", "Lugar": "El Ceibo" }, "geometry": { "type": "Point", "coordinates": [ -90.971320821995931, 17.258030161971046 ] } },
{ "type": "Feature", "properties": { "Id": 0, "Nombre": "Finca San José del Río", "CATEGORIA": "07", "Descrip": "Finca", "Lugar": "Finca San José Del Río" }, "geometry": { "type": "Point", "coordinates": [ -90.933882913269656, 17.254514068896317 ] } },
{ "type": "Feature", "properties": { "Id": 0, "Nombre": "Labor El Chiquero", "CATEGORIA": "09", "Descrip": "Granja, Labor o similar", "Lugar": "Labor El Chiquero" }, "geometry": { "type": "Point", "coordinates": [ -90.891444527862376, 17.271121888515474 ] } },
{ "type": "Feature", "properties": { "Id": 0, "Nombre": "El Progreso", "CATEGORIA": "06", "Descrip": "Caserío", "Lugar": "El Progreso" }, "geometry": { "type": "Point", "coordinates": [ -90.900333243070222, 17.259135672429956 ] } },
{ "type": "Feature", "properties": { "Id": 0, "Nombre": "LA ZANJA", "CATEGORIA": "10", "Descrip": "Paraje", "Lugar": "La Zanja" }, "geometry": { "type": "Point", "coordinates": [ -90.894693564223843, 17.251278590443881 ] } },
{ "type": "Feature", "properties": { "Id": 0, "Nombre": "Labor El Tigre", "CATEGORIA": "09", "Descrip": "Granja, Labor o similar", "Lugar": "Labor El Tigre" }, "geometry": { "type": "Point", "coordinates": [ -90.852358880353179, 17.251900948875363 ] } },
{ "type": "Feature", "properties": { "Id": 0, "Nombre": "DOS ARROYOS", "CATEGORIA": "10", "Descrip": "Paraje", "Lugar": "Dos Arroyos" }, "geometry": { "type": "Point", "coordinates": [ -90.872901270574502, 17.271384988089235 ] } },
{ "type": "Feature", "properties": { "Id": 0, "Nombre": "TRES ARROYOS", "CATEGORIA": "10", "Descrip": "Paraje", "Lugar": "Tres Arroyos" }, "geometry": { "type": "Point", "coordinates": [ -90.861991429126078, 17.265229542457753 ] } },
{ "type": "Feature", "properties": { "Id": 0, "Nombre": "CAMPO EL TIGRE", "CATEGORIA": "10", "Descrip": "Paraje", "Lugar": "Campo El Tigre" }, "geometry": { "type": "Point", "coordinates": [ -90.854351211616873, 17.25849692193384 ] } },
{ "type": "Feature", "properties": { "Id": 0, "Nombre": "TORNO EL TIGRE", "CATEGORIA": "10", "Descrip": "Paraje", "Lugar": "Torno El Tigre" }, "geometry": { "type": "Point", "coordinates": [ -90.858381786122834, 17.24707241757023 ] } },
{ "type": "Feature", "properties": { "Id": 0, "Nombre": "TORNO\r\nEL SOLDADO", "CATEGORIA": "10", "Descrip": "Paraje", "Lugar": "Torno\r\nEl Soldado" }, "geometry": { "type": "Point", "coordinates": [ -90.842601513589059, 17.249426504474091 ] } },
{ "type": "Feature", "properties": { "Id": 0, "Nombre": "Laguneta\r\nSanta Rosa", "CATEGORIA": "32", "Descrip": "Laguneta", "Lugar": "Laguneta\r\nSanta Rosa" }, "geometry": { "type": "Point", "coordinates": [ -90.818782759604261, 17.251998014254816 ] } },
{ "type": "Feature", "properties": { "Id": 0, "Nombre": "EL CARIBE", "CATEGORIA": "10", "Descrip": "Paraje", "Lugar": "El Caribe" }, "geometry": { "type": "Point", "coordinates": [ -90.758188739243678, 17.256070830069181 ] } },
{ "type": "Feature", "properties": { "Id": 0, "Nombre": "LA PROVIDENCIA", "CATEGORIA": "10", "Descrip": "Paraje", "Lugar": "La Providencia" }, "geometry": { "type": "Point", "coordinates": [ -90.763035430520446, 17.250009168396918 ] } },
{ "type": "Feature", "properties": { "Id": 0, "Nombre": "Finca\r\nLa Guadalupe", "CATEGORIA": "07", "Descrip": "Finca", "Lugar": "Finca\r\nLa Guadalupe" }, "geometry": { "type": "Point", "coordinates": [ -90.792265786818348, 17.233896211070697 ] } },
{ "type": "Feature", "properties": { "Id": 0, "Nombre": "Sitio arqueológico Ocultún", "CATEGORIA": "11", "Descrip": "Sitios arqueológicos", "Lugar": "Sitio Arqueológico Ocultún" }, "geometry": { "type": "Point", "coordinates": [ -90.812048605108671, 17.222568682648568 ] } },
{ "type": "Feature", "properties": { "Id": 0, "Nombre": "EL NARANJO", "CATEGORIA": "05", "Descrip": "Aldea", "Lugar": "El Naranjo" }, "geometry": { "type": "Point", "coordinates": [ -90.804075937370683, 17.230814680201917 ] } },
{ "type": "Feature", "properties": { "Id": 0, "Nombre": "Finca\r\nSanta Rosa", "CATEGORIA": "07", "Descrip": "Finca", "Lugar": "Finca\r\nSanta Rosa" }, "geometry": { "type": "Point", "coordinates": [ -90.815410291950229, 17.241105718633182 ] } },
{ "type": "Feature", "properties": { "Id": 0, "Nombre": "Laguneta\r\nEl Testamento", "CATEGORIA": "32", "Descrip": "Laguneta", "Lugar": "Laguneta\r\nEl Testamento" }, "geometry": { "type": "Point", "coordinates": [ -90.851540512918589, 17.240118925766751 ] } },
{ "type": "Feature", "properties": { "Id": 0, "Nombre": "SAJÁ", "CATEGORIA": "10", "Descrip": "Paraje", "Lugar": "Sajá" }, "geometry": { "type": "Point", "coordinates": [ -90.899018066325468, 17.220666650685452 ] } },
{ "type": "Feature", "properties": { "Id": 0, "Nombre": "Cerro Ocultún", "CATEGORIA": "16", "Descrip": "Cerros", "Lugar": "Cerro Ocultún" }, "geometry": { "type": "Point", "coordinates": [ -90.772085076095351, 17.198584670392535 ] } },
{ "type": "Feature", "properties": { "Id": 0, "Nombre": "CONFIN DEL PARQUE NACIONAL TIKAL", "CATEGORIA": "10", "Descrip": "Paraje", "Lugar": "Confin Del Parque Nacional Tikal" }, "geometry": { "type": "Point", "coordinates": [ -89.728169371492029, 17.143308363253681 ] } },
{ "type": "Feature", "properties": { "Id": 0, "Nombre": "EL MIRADOR", "CATEGORIA": "10", "Descrip": "Paraje", "Lugar": "El Mirador" }, "geometry": { "type": "Point", "coordinates": [ -89.654671558766552, 17.159516409934689 ] } },
{ "type": "Feature", "properties": { "Id": 0, "Nombre": "CONFIN DEL PARQUE NACIONAL TIKAL", "CATEGORIA": "10", "Descrip": "Paraje", "Lugar": "Confin Del Parque Nacional Tikal" }, "geometry": { "type": "Point", "coordinates": [ -89.502857648488856, 17.144986111603711 ] } },
{ "type": "Feature", "properties": { "Id": 0, "Nombre": "CONFIN DEL PARQUE NACIONAL TIKAL", "CATEGORIA": "10", "Descrip": "Paraje", "Lugar": "Confin Del Parque Nacional Tikal" }, "geometry": { "type": "Point", "coordinates": [ -89.62599102070736, 17.116453468912997 ] } },
{ "type": "Feature", "properties": { "Id": 0, "Nombre": "Zocotzal", "CATEGORIA": "06", "Descrip": "Caserío", "Lugar": "Zocotzal" }, "geometry": { "type": "Point", "coordinates": [ -89.681623029491647, 17.104157261992373 ] } },
{ "type": "Feature", "properties": { "Id": 0, "Nombre": "PARCELAMIENTO AGRARIO\r\nEL MEJIA", "CATEGORIA": "18", "Descrip": "Parcelamientos, Colonias, Barrios, Lotificaciones o similares", "Lugar": "Parcelamiento Agrario\r\nEl Mejia" }, "geometry": { "type": "Point", "coordinates": [ -89.713260363458218, 17.085267464663747 ] } },
{ "type": "Feature", "properties": { "Id": 0, "Nombre": "El Porvenir", "CATEGORIA": "06", "Descrip": "Caserío", "Lugar": "El Porvenir" }, "geometry": { "type": "Point", "coordinates": [ -89.686321828939697, 17.066681553065472 ] } },
{ "type": "Feature", "properties": { "Id": 0, "Nombre": "EL CAOBA", "CATEGORIA": "10", "Descrip": "Paraje", "Lugar": "El Caoba" }, "geometry": { "type": "Point", "coordinates": [ -89.638610893667718, 17.033169871330571 ] } },
{ "type": "Feature", "properties": { "Id": 0, "Nombre": "Campamento Chiclero", "CATEGORIA": "12", "Descrip": "Entidades", "Lugar": "Campamento Chiclero" }, "geometry": { "type": "Point", "coordinates": [ -89.573547914015776, 17.037641501592489 ] } },
{ "type": "Feature", "properties": { "Id": 0, "Nombre": "Finca\r\nOro Verde", "CATEGORIA": "07", "Descrip": "Finca", "Lugar": "Finca\r\nOro Verde" }, "geometry": { "type": "Point", "coordinates": [ -89.673800518962921, 17.02860941807009 ] } },
{ "type": "Feature", "properties": { "Id": 0, "Nombre": "El Caoba", "CATEGORIA": "06", "Descrip": "Caserío", "Lugar": "El Caoba" }, "geometry": { "type": "Point", "coordinates": [ -89.673669703338234, 17.023677204952286 ] } },
{ "type": "Feature", "properties": { "Id": 0, "Nombre": "El Capulinar", "CATEGORIA": "06", "Descrip": "Caserío", "Lugar": "El Capulinar" }, "geometry": { "type": "Point", "coordinates": [ -89.682670655530089, 17.007880167217465 ] } },
{ "type": "Feature", "properties": { "Id": 0, "Nombre": "Los Encuentros", "CATEGORIA": "06", "Descrip": "Caserío", "Lugar": "Los Encuentros" }, "geometry": { "type": "Point", "coordinates": [ -89.215794788577455, 16.974247091588325 ] } },
{ "type": "Feature", "properties": { "Id": 0, "Nombre": "PARCELAMIENTO YANAHÍ", "CATEGORIA": "18", "Descrip": "Parcelamientos, Colonias, Barrios, Lotificaciones o similares", "Lugar": "Parcelamiento Yanahí" }, "geometry": { "type": "Point", "coordinates": [ -90.856814008252002, 16.812252144056757 ] } },
{ "type": "Feature", "properties": { "Id": 0, "Nombre": "PARCELAMIENTO BELÉN", "CATEGORIA": "18", "Descrip": "Parcelamientos, Colonias, Barrios, Lotificaciones o similares", "Lugar": "Parcelamiento Belén" }, "geometry": { "type": "Point", "coordinates": [ -90.759681020713444, 16.803121708972988 ] } },
{ "type": "Feature", "properties": { "Id": 0, "Nombre": "PARCELAMIENTO EL BAJO", "CATEGORIA": "18", "Descrip": "Parcelamientos, Colonias, Barrios, Lotificaciones o similares", "Lugar": "Parcelamiento El Bajo" }, "geometry": { "type": "Point", "coordinates": [ -89.945485255499591, 17.158511176665797 ] } },
{ "type": "Feature", "properties": { "Id": 0, "Nombre": "Finca Sinaloa", "CATEGORIA": "07", "Descrip": "Finca", "Lugar": "Finca Sinaloa" }, "geometry": { "type": "Point", "coordinates": [ -89.936558038660024, 17.138442022247737 ] } },
{ "type": "Feature", "properties": { "Id": 0, "Nombre": "BARRIO NUEVO LA ESPERANZA", "CATEGORIA": "18", "Descrip": "Parcelamientos, Colonias, Barrios, Lotificaciones o similares", "Lugar": "Barrio Nuevo La Esperanza" }, "geometry": { "type": "Point", "coordinates": [ -89.930532335916212, 17.140901608896666 ] } },
{ "type": "Feature", "properties": { "Id": 0, "Nombre": "Finca Valle Real", "CATEGORIA": "07", "Descrip": "Finca", "Lugar": "Finca Valle Real" }, "geometry": { "type": "Point", "coordinates": [ -89.954472637420452, 17.107741677099881 ] } },
{ "type": "Feature", "properties": { "Id": 0, "Nombre": "Finca San Clemente", "CATEGORIA": "07", "Descrip": "Finca", "Lugar": "Finca San Clemente" }, "geometry": { "type": "Point", "coordinates": [ -89.935307592222145, 17.124255646553081 ] } },
{ "type": "Feature", "properties": { "Id": 0, "Nombre": "Finca La Rebelde", "CATEGORIA": "07", "Descrip": "Finca", "Lugar": "Finca La Rebelde" }, "geometry": { "type": "Point", "coordinates": [ -89.93190761140302, 17.123657630693945 ] } },
{ "type": "Feature", "properties": { "Id": 0, "Nombre": "Finca La Bendición", "CATEGORIA": "07", "Descrip": "Finca", "Lugar": "Finca La Bendición" }, "geometry": { "type": "Point", "coordinates": [ -89.887332837376476, 17.125776741014711 ] } },
{ "type": "Feature", "properties": { "Id": 0, "Nombre": "Rancho Bonanza", "CATEGORIA": "28", "Descrip": "Rancho", "Lugar": "Rancho Bonanza" }, "geometry": { "type": "Point", "coordinates": [ -89.931082178158306, 17.091032389663209 ] } },
{ "type": "Feature", "properties": { "Id": 0, "Nombre": "Hacienda María Fernanda", "CATEGORIA": "08", "Descrip": "Ranchería o Hacienda", "Lugar": "Hacienda María Fernanda" }, "geometry": { "type": "Point", "coordinates": [ -89.933839983499027, 17.090662495456083 ] } },
{ "type": "Feature", "properties": { "Id": 0, "Nombre": "Finca Santa Rosita", "CATEGORIA": "07", "Descrip": "Finca", "Lugar": "Finca Santa Rosita" }, "geometry": { "type": "Point", "coordinates": [ -89.931221155492835, 17.076579508010632 ] } },
{ "type": "Feature", "properties": { "Id": 0, "Nombre": "Finca La Fe", "CATEGORIA": "07", "Descrip": "Finca", "Lugar": "Finca La Fe" }, "geometry": { "type": "Point", "coordinates": [ -89.941092218250603, 17.077187079458778 ] } },
{ "type": "Feature", "properties": { "Id": 0, "Nombre": "Finca El Esfuerzo", "CATEGORIA": "07", "Descrip": "Finca", "Lugar": "Finca El Esfuerzo" }, "geometry": { "type": "Point", "coordinates": [ -89.929408128293787, 17.073775872010255 ] } },
{ "type": "Feature", "properties": { "Id": 0, "Nombre": "Parcela Baren", "CATEGORIA": "20", "Descrip": "Otros nombres", "Lugar": "Parcela Baren" }, "geometry": { "type": "Point", "coordinates": [ -89.914355806080749, 17.070724472767253 ] } },
{ "type": "Feature", "properties": { "Id": 0, "Nombre": "Finca El Encanto", "CATEGORIA": "07", "Descrip": "Finca", "Lugar": "Finca El Encanto" }, "geometry": { "type": "Point", "coordinates": [ -89.764186562401875, 17.07982719427018 ] } },
{ "type": "Feature", "properties": { "Id": 0, "Nombre": "Finca San Gabriel", "CATEGORIA": "07", "Descrip": "Finca", "Lugar": "Finca San Gabriel" }, "geometry": { "type": "Point", "coordinates": [ -89.919338201051417, 17.062293240768017 ] } },
{ "type": "Feature", "properties": { "Id": 0, "Nombre": "Finca El Triunfo", "CATEGORIA": "07", "Descrip": "Finca", "Lugar": "Finca El Triunfo" }, "geometry": { "type": "Point", "coordinates": [ -89.902306635209911, 17.054608225001829 ] } },
{ "type": "Feature", "properties": { "Id": 0, "Nombre": "PARCELAMIENTO CANTETUL", "CATEGORIA": "18", "Descrip": "Parcelamientos, Colonias, Barrios, Lotificaciones o similares", "Lugar": "Parcelamiento Cantetul" }, "geometry": { "type": "Point", "coordinates": [ -89.916343165768126, 17.035865490953114 ] } },
{ "type": "Feature", "properties": { "Id": 0, "Nombre": "Finca Tierra Buena", "CATEGORIA": "07", "Descrip": "Finca", "Lugar": "Finca Tierra Buena" }, "geometry": { "type": "Point", "coordinates": [ -89.919277742661293, 17.051696148204325 ] } },
{ "type": "Feature", "properties": { "Id": 0, "Nombre": "Finca La Buena Providencia", "CATEGORIA": "07", "Descrip": "Finca", "Lugar": "Finca La Buena Providencia" }, "geometry": { "type": "Point", "coordinates": [ -89.938855173123414, 17.051259693010262 ] } },
{ "type": "Feature", "properties": { "Id": 0, "Nombre": "Finca Las Tres \"M\"", "CATEGORIA": "07", "Descrip": "Finca", "Lugar": "Finca Las Tres \"m\"" }, "geometry": { "type": "Point", "coordinates": [ -89.776789296338663, 17.041443531014579 ] } },
{ "type": "Feature", "properties": { "Id": 0, "Nombre": "Sitio Arqueológico Motul", "CATEGORIA": "11", "Descrip": "Sitios arqueológicos", "Lugar": "Sitio Arqueológico Motul" }, "geometry": { "type": "Point", "coordinates": [ -89.903587752190575, 17.022968648152276 ] } },
{ "type": "Feature", "properties": { "Id": 0, "Nombre": "Rancho 3 \"S\" El Valle de los Toros", "CATEGORIA": "28", "Descrip": "Rancho", "Lugar": "Rancho 3 \"s\" El Valle De Los Toros" }, "geometry": { "type": "Point", "coordinates": [ -89.916615889516308, 17.000417703722487 ] } },
{ "type": "Feature", "properties": { "Id": 0, "Nombre": "Finca Oxtul Selemuch Tres Escorpiones", "CATEGORIA": "07", "Descrip": "Finca", "Lugar": "Finca Oxtul Selemuch Tres Escorpiones" }, "geometry": { "type": "Point", "coordinates": [ -89.818186989964914, 17.01465216984985 ] } },
{ "type": "Feature", "properties": { "Id": 0, "Nombre": "Finca San Pedro Kawil", "CATEGORIA": "07", "Descrip": "Finca", "Lugar": "Finca San Pedro Kawil" }, "geometry": { "type": "Point", "coordinates": [ -89.843175738200713, 17.012802786927335 ] } },
{ "type": "Feature", "properties": { "Id": 0, "Nombre": "Rancho Mohema", "CATEGORIA": "28", "Descrip": "Rancho", "Lugar": "Rancho Mohema" }, "geometry": { "type": "Point", "coordinates": [ -89.848965584019837, 17.010989489618602 ] } },
{ "type": "Feature", "properties": { "Id": 0, "Nombre": "BARRIO NUEVA ESPERANZA", "CATEGORIA": "18", "Descrip": "Parcelamientos, Colonias, Barrios, Lotificaciones o similares", "Lugar": "Barrio Nueva Esperanza" }, "geometry": { "type": "Point", "coordinates": [ -89.836385422574963, 17.022212690011965 ] } },
{ "type": "Feature", "properties": { "Id": 0, "Nombre": "LOTIFICACIÓN SANTA REGINA DEL LAGO", "CATEGORIA": "18", "Descrip": "Parcelamientos, Colonias, Barrios, Lotificaciones o similares", "Lugar": "Lotificación Santa Regina Del Lago" }, "geometry": { "type": "Point", "coordinates": [ -89.800458654892438, 17.013758248018284 ] } },
{ "type": "Feature", "properties": { "Id": 0, "Nombre": "VILLAJE LA LANCHA", "CATEGORIA": "18", "Descrip": "Parcelamientos, Colonias, Barrios, Lotificaciones o similares", "Lugar": "Villaje La Lancha" }, "geometry": { "type": "Point", "coordinates": [ -89.796013792274636, 17.015143504677223 ] } },
{ "type": "Feature", "properties": { "Id": 0, "Nombre": "Finca La Pila", "CATEGORIA": "07", "Descrip": "Finca", "Lugar": "Finca La Pila" }, "geometry": { "type": "Point", "coordinates": [ -89.775168629308553, 17.01962736305537 ] } },
{ "type": "Feature", "properties": { "Id": 0, "Nombre": "BARRIO ÚLTIMO ADIÓS", "CATEGORIA": "18", "Descrip": "Parcelamientos, Colonias, Barrios, Lotificaciones o similares", "Lugar": "Barrio Último Adiós" }, "geometry": { "type": "Point", "coordinates": [ -89.772165848451564, 17.014934163103394 ] } },
{ "type": "Feature", "properties": { "Id": 0, "Nombre": "BARRIO EL CENTRO", "CATEGORIA": "18", "Descrip": "Parcelamientos, Colonias, Barrios, Lotificaciones o similares", "Lugar": "Barrio El Centro" }, "geometry": { "type": "Point", "coordinates": [ -89.761439197237635, 17.014324999515708 ] } },
{ "type": "Feature", "properties": { "Id": 0, "Nombre": "Rancho El Encantadero", "CATEGORIA": "28", "Descrip": "Rancho", "Lugar": "Rancho El Encantadero" }, "geometry": { "type": "Point", "coordinates": [ -89.776891328284933, 17.010755379807314 ] } },
{ "type": "Feature", "properties": { "Id": 0, "Nombre": "Rancho Kimbor", "CATEGORIA": "28", "Descrip": "Rancho", "Lugar": "Rancho Kimbor" }, "geometry": { "type": "Point", "coordinates": [ -89.870697565936567, 17.009282673780778 ] } },
{ "type": "Feature", "properties": { "Id": 0, "Nombre": "Reserva Comunitaria Indigena Biditza", "CATEGORIA": "20", "Descrip": "Otros nombres", "Lugar": "Reserva Comunitaria Indigena Biditza" }, "geometry": { "type": "Point", "coordinates": [ -89.857046251870585, 17.081926949618488 ] } },
{ "type": "Feature", "properties": { "Id": 0, "Nombre": "Biotopo Cerro Cahuí", "CATEGORIA": "14", "Descrip": "Parques nacionales, Áreas de reserva, Áreas ecologicas o similares", "Lugar": "Biotopo Cerro Cahuí" }, "geometry": { "type": "Point", "coordinates": [ -89.716757419050381, 16.998034592039005 ] } },
{ "type": "Feature", "properties": { "Id": 0, "Nombre": "La Democracia", "CATEGORIA": "06", "Descrip": "Caserío", "Lugar": "La Democracia" }, "geometry": { "type": "Point", "coordinates": [ -89.53752330472507, 16.996055443137141 ] } },
{ "type": "Feature", "properties": { "Id": 0, "Nombre": "Finca Santa Marina", "CATEGORIA": "07", "Descrip": "Finca", "Lugar": "Finca Santa Marina" }, "geometry": { "type": "Point", "coordinates": [ -89.533287588038363, 16.987187275058879 ] } },
{ "type": "Feature", "properties": { "Id": 0, "Nombre": "Finca Ebenezer", "CATEGORIA": "07", "Descrip": "Finca", "Lugar": "Finca Ebenezer" }, "geometry": { "type": "Point", "coordinates": [ -89.543300342917149, 16.94623432962851 ] } },
{ "type": "Feature", "properties": { "Id": 0, "Nombre": "Parque Ecológico Huleu Checha", "CATEGORIA": "14", "Descrip": "Parques nacionales, Áreas de reserva, Áreas ecologicas o similares", "Lugar": "Parque Ecológico Huleu Checha" }, "geometry": { "type": "Point", "coordinates": [ -89.546303962126586, 16.948189604449048 ] } },
{ "type": "Feature", "properties": { "Id": 0, "Nombre": "Área Ecológica Privada Monte María", "CATEGORIA": "14", "Descrip": "Parques nacionales, Áreas de reserva, Áreas ecologicas o similares", "Lugar": "Área Ecológica Privada Monte María" }, "geometry": { "type": "Point", "coordinates": [ -89.563101769356976, 16.950259062685141 ] } },
{ "type": "Feature", "properties": { "Id": 0, "Nombre": "Finca Colombia", "CATEGORIA": "07", "Descrip": "Finca", "Lugar": "Finca Colombia" }, "geometry": { "type": "Point", "coordinates": [ -89.637530206887178, 16.961553319380396 ] } },
{ "type": "Feature", "properties": { "Id": 0, "Nombre": "Finca La Esperanza", "CATEGORIA": "07", "Descrip": "Finca", "Lugar": "Finca La Esperanza" }, "geometry": { "type": "Point", "coordinates": [ -89.618975026180166, 16.953838628355033 ] } },
{ "type": "Feature", "properties": { "Id": 0, "Nombre": "Hacienda Buenaventura", "CATEGORIA": "08", "Descrip": "Ranchería o Hacienda", "Lugar": "Hacienda Buenaventura" }, "geometry": { "type": "Point", "coordinates": [ -89.610523576913906, 16.953764463209954 ] } },
{ "type": "Feature", "properties": { "Id": 0, "Nombre": "Finca La Lucrecia", "CATEGORIA": "07", "Descrip": "Finca", "Lugar": "Finca La Lucrecia" }, "geometry": { "type": "Point", "coordinates": [ -89.60215398626579, 16.952963773532129 ] } },
{ "type": "Feature", "properties": { "Id": 0, "Nombre": "Los Magos", "CATEGORIA": "06", "Descrip": "Caserío", "Lugar": "Los Magos" }, "geometry": { "type": "Point", "coordinates": [ -89.624142672210482, 16.945392050991817 ] } },
{ "type": "Feature", "properties": { "Id": 0, "Nombre": "Finca Caballo Muerto", "CATEGORIA": "07", "Descrip": "Finca", "Lugar": "Finca Caballo Muerto" }, "geometry": { "type": "Point", "coordinates": [ -89.504252665217507, 16.893438441612741 ] } },
{ "type": "Feature", "properties": { "Id": 0, "Nombre": "La Unión II", "CATEGORIA": "06", "Descrip": "Caserío", "Lugar": "La Unión Ii" }, "geometry": { "type": "Point", "coordinates": [ -89.544270836966717, 16.871356659497444 ] } },
{ "type": "Feature", "properties": { "Id": 0, "Nombre": "Monterrico", "CATEGORIA": "05", "Descrip": "Aldea", "Lugar": "Monterrico" }, "geometry": { "type": "Point", "coordinates": [ -89.595118232098528, 16.872516876071259 ] } },
{ "type": "Feature", "properties": { "Id": 0, "Nombre": "Nuevo Porvenir", "CATEGORIA": "06", "Descrip": "Caserío", "Lugar": "Nuevo Porvenir" }, "geometry": { "type": "Point", "coordinates": [ -89.573635844971832, 16.837968264787097 ] } },
{ "type": "Feature", "properties": { "Id": 0, "Nombre": "Nueva Verapaz", "CATEGORIA": "05", "Descrip": "Aldea", "Lugar": "Nueva Verapaz" }, "geometry": { "type": "Point", "coordinates": [ -89.541067305698277, 16.853179141152982 ] } },
{ "type": "Feature", "properties": { "Id": 0, "Nombre": "Santuario Ecológico El Retiro", "CATEGORIA": "14", "Descrip": "Parques nacionales, Áreas de reserva, Áreas ecologicas o similares", "Lugar": "Santuario Ecológico El Retiro" }, "geometry": { "type": "Point", "coordinates": [ -89.636901216388992, 16.973961953304315 ] } },
{ "type": "Feature", "properties": { "Id": 0, "Nombre": "Finca Buenos Aires", "CATEGORIA": "07", "Descrip": "Finca", "Lugar": "Finca Buenos Aires" }, "geometry": { "type": "Point", "coordinates": [ -89.581658245102219, 16.950907185602766 ] } },
{ "type": "Feature", "properties": { "Id": 0, "Nombre": "Área Ecológica Gringo Perdido", "CATEGORIA": "14", "Descrip": "Parques nacionales, Áreas de reserva, Áreas ecologicas o similares", "Lugar": "Área Ecológica Gringo Perdido" }, "geometry": { "type": "Point", "coordinates": [ -89.714577973724658, 16.993477027847685 ] } },
{ "type": "Feature", "properties": { "Id": 0, "Nombre": "BARRIO LAS PAVAS", "CATEGORIA": "18", "Descrip": "Parcelamientos, Colonias, Barrios, Lotificaciones o similares", "Lugar": "Barrio Las Pavas" }, "geometry": { "type": "Point", "coordinates": [ -89.899915097587439, 16.994886848485088 ] } },
{ "type": "Feature", "properties": { "Id": 0, "Nombre": "Área Protegida Ixshomac", "CATEGORIA": "14", "Descrip": "Parques nacionales, Áreas de reserva, Áreas ecologicas o similares", "Lugar": "Área Protegida Ixshomac" }, "geometry": { "type": "Point", "coordinates": [ -89.909247852455266, 16.986847529493165 ] } },
{ "type": "Feature", "properties": { "Id": 0, "Nombre": "BARRIO LAS ESTRELLAS", "CATEGORIA": "18", "Descrip": "Parcelamientos, Colonias, Barrios, Lotificaciones o similares", "Lugar": "Barrio Las Estrellas" }, "geometry": { "type": "Point", "coordinates": [ -89.898243778795631, 16.989957737676914 ] } },
{ "type": "Feature", "properties": { "Id": 0, "Nombre": "Ixhuacut", "CATEGORIA": "06", "Descrip": "Caserío", "Lugar": "Ixhuacut" }, "geometry": { "type": "Point", "coordinates": [ -89.916658160171224, 16.992337866651134 ] } },
{ "type": "Feature", "properties": { "Id": 0, "Nombre": "BARRIO SAN PABLO", "CATEGORIA": "18", "Descrip": "Parcelamientos, Colonias, Barrios, Lotificaciones o similares", "Lugar": "Barrio San Pablo" }, "geometry": { "type": "Point", "coordinates": [ -90.402549944669403, 17.112437039698488 ] } },
{ "type": "Feature", "properties": { "Id": 0, "Nombre": "COMUNIDAD TAMARIZ LAS VEGAS", "CATEGORIA": "18", "Descrip": "Parcelamientos, Colonias, Barrios, Lotificaciones o similares", "Lugar": "Comunidad Tamariz Las Vegas" }, "geometry": { "type": "Point", "coordinates": [ -90.404222543905703, 17.115877373351481 ] } },
{ "type": "Feature", "properties": { "Id": 0, "Nombre": "La Pista", "CATEGORIA": "06", "Descrip": "Caserío", "Lugar": "La Pista" }, "geometry": { "type": "Point", "coordinates": [ -90.337270871585986, 17.076485143774224 ] } },
{ "type": "Feature", "properties": { "Id": 0, "Nombre": "Finca Santa Teresa La Laguna", "CATEGORIA": "07", "Descrip": "Finca", "Lugar": "Finca Santa Teresa La Laguna" }, "geometry": { "type": "Point", "coordinates": [ -90.307598254157583, 17.086927995775195 ] } },
{ "type": "Feature", "properties": { "Id": 0, "Nombre": "Laguna Larga", "CATEGORIA": "06", "Descrip": "Caserío", "Lugar": "Laguna Larga" }, "geometry": { "type": "Point", "coordinates": [ -90.299406905539072, 17.08924744622632 ] } },
{ "type": "Feature", "properties": { "Id": 0, "Nombre": "Los Cerritos", "CATEGORIA": "06", "Descrip": "Caserío", "Lugar": "Los Cerritos" }, "geometry": { "type": "Point", "coordinates": [ -90.474108342657729, 17.035556297111672 ] } },
{ "type": "Feature", "properties": { "Id": 0, "Nombre": "Finca Teca", "CATEGORIA": "07", "Descrip": "Finca", "Lugar": "Finca Teca" }, "geometry": { "type": "Point", "coordinates": [ -90.449000690755994, 17.012141145713663 ] } },
{ "type": "Feature", "properties": { "Id": 0, "Nombre": "BARRIO SAN PEDRO TAMARIZ", "CATEGORIA": "18", "Descrip": "Parcelamientos, Colonias, Barrios, Lotificaciones o similares", "Lugar": "Barrio San Pedro Tamariz" }, "geometry": { "type": "Point", "coordinates": [ -90.408263905130354, 17.114227631891481 ] } },
{ "type": "Feature", "properties": { "Id": 0, "Nombre": "Campamento Tamariz", "CATEGORIA": "20", "Descrip": "Otros nombres", "Lugar": "Campamento Tamariz" }, "geometry": { "type": "Point", "coordinates": [ -90.350232625494883, 17.092978455224863 ] } },
{ "type": "Feature", "properties": { "Id": 0, "Nombre": "Villa Hermosa", "CATEGORIA": "05", "Descrip": "Aldea", "Lugar": "Villa Hermosa" }, "geometry": { "type": "Point", "coordinates": [ -90.734666241425359, 16.971322225111496 ] } },
{ "type": "Feature", "properties": { "Id": 0, "Nombre": "Las Ruinas", "CATEGORIA": "06", "Descrip": "Caserío", "Lugar": "Las Ruinas" }, "geometry": { "type": "Point", "coordinates": [ -90.683346549037125, 16.961261681545096 ] } },
{ "type": "Feature", "properties": { "Id": 0, "Nombre": "Alta Mira La Casaca", "CATEGORIA": "06", "Descrip": "Caserío", "Lugar": "Alta Mira La Casaca" }, "geometry": { "type": "Point", "coordinates": [ -90.585181481855798, 16.991389314624282 ] } },
{ "type": "Feature", "properties": { "Id": 0, "Nombre": "Las Marías", "CATEGORIA": "06", "Descrip": "Caserío", "Lugar": "Las Marías" }, "geometry": { "type": "Point", "coordinates": [ -90.522691843853195, 16.93844213091619 ] } },
{ "type": "Feature", "properties": { "Id": 0, "Nombre": "PARCELAMIENTO LEMUS", "CATEGORIA": "18", "Descrip": "Parcelamientos, Colonias, Barrios, Lotificaciones o similares", "Lugar": "Parcelamiento Lemus" }, "geometry": { "type": "Point", "coordinates": [ -90.583105895445783, 16.934443832536481 ] } },
{ "type": "Feature", "properties": { "Id": 0, "Nombre": "El Esqueleto", "CATEGORIA": "06", "Descrip": "Caserío", "Lugar": "El Esqueleto" }, "geometry": { "type": "Point", "coordinates": [ -90.622771994497086, 16.950088668008007 ] } },
{ "type": "Feature", "properties": { "Id": 0, "Nombre": "Nueva Candelaria", "CATEGORIA": "06", "Descrip": "Caserío", "Lugar": "Nueva Candelaria" }, "geometry": { "type": "Point", "coordinates": [ -90.638451775904855, 16.95180503482327 ] } },
{ "type": "Feature", "properties": { "Id": 0, "Nombre": "Nueva Canaán", "CATEGORIA": "06", "Descrip": "Caserío", "Lugar": "Nueva Canaán" }, "geometry": { "type": "Point", "coordinates": [ -90.655240448457334, 16.96024669137206 ] } },
{ "type": "Feature", "properties": { "Id": 0, "Nombre": "COMUNIDAD SAN JUAN VILLA NUEVA", "CATEGORIA": "18", "Descrip": "Parcelamientos, Colonias, Barrios, Lotificaciones o similares", "Lugar": "Comunidad San Juan Villa Nueva" }, "geometry": { "type": "Point", "coordinates": [ -90.741882956583026, 16.917960272813179 ] } },
{ "type": "Feature", "properties": { "Id": 0, "Nombre": "Las Victorias", "CATEGORIA": "06", "Descrip": "Caserío", "Lugar": "Las Victorias" },